,code,name,latitude,longitude,distance_to_center,stations_cluster
0,6209,Milton / Clark,45.51252,-73.57062,12.367270119887179,26
1,6436,Côte St-Antoine / Clarke,45.48645209646392,-73.59523415565491,7.892355844615979,27
2,6214,Square St-Louis,45.51735,-73.56906,5.211373195627849,28
3,6248,St-Dominique / Rachel,45.518593,-73.581566,9.655563499358195,26
4,6164,Chambord / Laurier,45.5329550401632,-73.58419418334961,5.526461291944536,32
5,6216,Parc Jeanne Mance (monument George-Étienne Cartier),45.51496,-73.58503,5.042144756992064,26
6,6082,6e avenue / Rosemont,45.550613,-73.582883,2.400642186422935,10
7,6149,Chapleau / du Mont-Royal,45.53867,-73.56936,3.7477831744766434,43
8,6265,Parthenais / Laurier,45.539259,-73.577338,12.527065785175429,10
9,6211,Roy / St-Laurent,45.51561,-73.57569,12.257201079553976,26
10,6252,Mozart / St-Laurent,45.53318,-73.61544,12.725352694624277,17
11,6233,Bernard / Jeanne-Mance,45.52429587282263,-73.60484719276428,3.330422634969447,46
12,6064,de Maisonneuve / Stanley,45.50038,-73.57507,5.155086744379302,45
13,6408,Métro George-Vanier (St-Antoine / Canning),45.4891,-73.57656,4.243919654256667,8
14,6068,Mansfield / Sherbrooke,45.50297,-73.57505,4.408964184096848,45
15,6093,Atwater / Sherbrooke,45.49132174886071,-73.58780980110168,4.968312127158054,8
16,6253,Lajeunesse / Jean-Talon,45.53973680304488,-73.61425638198853,7.410988856368166,17
17,6336,Faillon / St-Hubert,45.54279435304991,-73.6181053519249,6.9948757084444155,17
18,6223,du Mont-Royal / du Parc,45.517,-73.589,1.1275220856363533,19
19,6062,Drummond / Ste-Catherine,45.49863930330429,-73.57422709465027,4.624016266782069,45
20,6434,Victoria / de Maisonneuve,45.47742856483265,-73.60016942024231,4.668525184956374,36
21,6099,Bishop / de Maisonneuve,45.49741095430152,-73.57827052474022,5.051958147335318,8
22,6280,Fairmount / St-Dominique,45.524504989237535,-73.59414249658585,5.423059377745846,19
23,6912,de Châteaubriand / Beaubien,45.5353406,-73.60365897,5.786415685581451,17
24,6231,St-Viateur/Parc,45.52223310369562,-73.60208183526993,5.807077700427394,46
25,6206,Prince-Arthur / du Parc,45.51059,-73.57547,2.5263920055630975,26
26,6411,Clark / Prince-Arthur,45.513338,-73.57295,2.6792208748799777,26
27,6227,de l'Esplanade / Laurier,45.521116220989526,-73.59478354454039,2.7741026911637565,19
28,6100,Mackay /de Maisonneuve (Sud),45.49659,-73.57851,3.0122209996114497,8
29,6364,Chambly / Rachel,45.54991069359101,-73.55826258659361,2.913182752068411,43
30,6380,Parc J.-Arthur-Champagne (Chambly / du Mont-Royal),45.551584,-73.561916,3.3355610086986114,43
31,6373,7e avenue / St-Joseph,45.547226645250745,-73.56986984610558,3.5406317755072743,43
32,6176,St-André / Duluth,45.523171,-73.573431,3.6175422557352377,26
33,6110,Poupart / Ste-Catherine,45.529033,-73.54641,3.657110984005754,2
34,6113,Alexandre-DeSève / de Maisonneuve,45.5219,-73.55534,4.247830607817535,2
35,6059,Metcalfe / Ste-Catherine,45.50068473942228,-73.57215642929077,3.868567498192087,45
36,6198,Hélène-Baillargeon / St-Denis,45.52974,-73.59527,3.9929631844124476,46
37,6221,du Mont-Royal / Clark,45.51941,-73.58685,4.229748890126632,19
38,6020,Sanguinet / Ontario,45.514784,-73.565338,4.5348364606532865,28
39,6203,Hutchison / Sherbrooke,45.50781,-73.57208,6.7841884980661025,45
40,6146,du Parc-La Fontaine / Roy,45.52290738118557,-73.56836378574371,7.586328585029372,28
41,6734,Lajeunesse / Villeray (place Tapéo),45.54211889,-73.6225471,8.071811716677693,29
42,6080,Mackay / René-Lévesque,45.49449932378212,-73.57417345046997,8.268911680955002,41
43,6137,Gauthier / Papineau,45.52969260094507,-73.56740087270737,2.8751462860057475,32
44,6042,de la Gauchetière / Robert-Bourassa,45.500675,-73.565354,2.5157985105584637,41
45,6410,Lajeunesse / Crémazie,45.54640752148169,-73.63842844963074,2.947530243315889,29
46,6917,Basile-Routhier / Chabanel,45.54993323340168,-73.64764451980591,2.782207308589009,15
47,6372,1ère avenue / Masson,45.5451997,-73.57645065,2.6414484199519244,10
48,6374,Laurier / 15e avenue,45.553408,-73.569531,3.0832208964527297,34
49,6060,Mansfield / René-Lévesque,45.50015,-73.56928,3.1920421916214723,45
50,6157,de la Roche / du Mont-Royal,45.5287456,-73.57865408,3.5507385925950947,32
51,6061,Ste-Catherine / McGill College,45.50176,-73.57128,3.4809357345866445,45
52,6148,Émile-Duployé / Sherbrooke,45.52729,-73.56463,3.399493749887763,2
53,6350,Island / Centre,45.48149081388884,-73.56475353240967,3.703628876730256,31
54,6163,Marquette / Laurier,45.53543,-73.5822,3.9629388907234233,32
55,6184,Métro Mont-Royal (Rivard / du Mont-Royal),45.524673,-73.58255,3.514560956182208,19
56,6213,Duluth / St-Laurent,45.5171,-73.57921,4.004021410492843,26
57,6067,de Maisonneuve / Robert-Bourassa,45.503475,-73.572103,3.702632519101246,45
58,6169,Boyer / du Mont-Royal,45.52742616970635,-73.57991807162762,9.332193207416294,32
59,6901,Ste-Catherine / St-Denis,45.51383004514541,-73.56043249368668,8.195257780801224,28
60,6128,Hogan / Ontario,45.53529548038031,-73.55116009712219,7.333439584379298,2
61,6124,Poupart / Ontario,45.531834,-73.553478,6.9853506796801295,2
62,6041,St-Jacques / Gauvin,45.500674,-73.561082,6.620056654875293,14
63,6049,Queen / Wellington,45.49759505413604,-73.55523705482483,7.158214263209605,14
64,6142,Calixa-Lavallée / Rachel,45.527791,-73.572056,6.421438412907359,32
65,6147,Calixa-Lavallée / Sherbrooke,45.52479,-73.56545,6.360912647405512,28
66,6395,Pierre-de-Coubertin / Aird,45.55896,-73.548687,6.7459479768051205,11
67,6152,Chabot / du Mont-Royal,45.53413436610843,-73.57349216938019,6.082519224474191,32
68,6138,Gauthier / De Lorimier,45.531818,-73.565317,5.954754179081186,2
69,6276,Chambord / Bélanger,45.542983030174845,-73.6063814163208,6.364969574693326,42
70,6019,Berri / Sherbrooke,45.5179101,-73.56714338,5.761643850286904,28
71,6012,Métro St-Laurent (de Maisonneuve / St-Laurent),45.51066,-73.56497,5.664435916504286,28
72,6034,St-Urbain / René-Lévesque,45.5079,-73.563112,5.410622849873728,14
73,6057,Peel / avenue des Canadiens de Montréal,45.497697,-73.568646,5.73854831240484,41
74,6085,Notre-Dame / Peel,45.4952,-73.56328,6.033189324598417,41
75,6140,Marquette / Rachel,45.5298015824607,-73.5702896118164,5.276352461490414,32
76,6902,Montcalm / Ontario,45.5210937,-73.56225103,5.345762877956596,28
77,6175,St-André / Cherrier,45.520578,-73.567733,4.791660859135809,28
78,6141,de Bordeaux / Rachel,45.53227,-73.56828,4.333713504538178,32
79,6154,Marquette / du Mont-Royal,45.53229,-73.57544,3.4257773417440744,32
80,6268,Chambord / Beaubien,45.539932183126695,-73.59934329986572,3.515948876389992,42
81,6906,de St-Vallier / Rosemont,45.5319173,-73.59798342,3.9511536918561396,46
82,6153,Cartier / Marie-Anne,45.532674,-73.571776,3.5401907341040575,32
83,6088,Guy / Notre-Dame,45.489951,-73.567091,3.5476274373863688,41
84,6165,Brébeuf / Laurier,45.53248,-73.58507,3.406414985691469,32
85,6114,Métro Papineau (Cartier / Ste-Catherine),45.52353,-73.55199,3.559248853032659,2
86,6118,Champlain / Ontario,45.52504753729988,-73.56003552675247,3.8870742652924286,2
87,6117,Robin / de la Visitation,45.52087,-73.55922,3.6692175049158315,28
88,6201,Villeneuve / de l'Hôtel-de-Ville,45.52352540631033,-73.58750939369202,7.772664959389338,19
89,6235,St-Dominique / St-Viateur,45.52654331973003,-73.59823286533356,9.656613947282468,46
90,6183,Laval / du Mont-Royal,45.52241290921658,-73.58412981033325,8.124762592408173,19
91,6267,de Bordeaux / Beaubien,45.54475,-73.5949,8.585303637474375,10
92,6414,Laporte / Guay,45.48007342327107,-73.58547896146774,7.617555784816086,27
93,6314,de Lanaudière / Marie-Anne,45.529219,-73.574777,8.217764408265124,32
94,6182,de Bullion / du Mont-Royal,45.5215,-73.5851,10.278965995115376,19
95,6273,Cartier / Bélanger,45.546939,-73.602616,9.88835674789801,42
96,6166,Brébeuf / St-Grégoire,45.5341,-73.58852,9.46201646884709,10
97,6109,Quai de la navette fluviale,45.51341276005555,-73.53825330734253,9.98152687311425,23
98,6275,Chambord / Jean-Talon,45.544828,-73.610458,10.11599160246751,42
99,6047,University / Prince-Arthur,45.50766169576538,-73.57885992183583,1.2757925519895852,45
100,6180,Place de la paix ( Pl. du marché / St-Dominique ),45.5096853,-73.56231675,1.4784113251772009,28
101,6904,Fabre / Beaubien,45.542055,-73.597793,2.8583391921955257,42
102,6269,Bercy / Ontario,45.53431097726852,-73.54996919631958,2.8571606562698113,2
103,6249,Bélanger / St-Denis,45.53696,-73.61199,3.1515291906865124,17
104,6155,Garnier / du Mont-Royal,45.53092,-73.57674,1.834513342844564,32
105,6015,Berri / de Maisonneuve,45.515299,-73.561273,1.6468167361581298,28
106,6368,10e avenue / Masson,45.55031640880025,-73.57335805892944,2.12802537213332,34
107,6087,Notre-Dame / de la Montagne,45.49302901258371,-73.56481790542603,2.8007427203325816,41
108,6039,McGill / des Récollets,45.500779,-73.558826,2.3328767097085907,14
109,6083,Square Phillips,45.50409488772675,-73.56869637966156,3.099546227131001,45
110,6134,Gascon / Rachel,45.537964,-73.562643,1.6679229477717237,43
111,6001,Hôtel-de-Ville 2 (du Champs-de-Mars / Gosford),45.50931028555171,-73.55443105101585,1.8908947488516055,14
112,6174,Roy / St-Denis,45.51908,-73.5727,2.812132167880705,26
113,6078,de Maisonneuve / de Bleury,45.50708,-73.56917,2.3539038971021204,45
114,6048,Queen / Ottawa,45.4979738,-73.55614096,2.7734835163770404,14
115,6014,St-Denis / de Maisonneuve,45.513917296074005,-73.56076508760452,2.1662605775082215,28
116,6179,Duluth / St-Denis,45.52060423232697,-73.57598394155502,2.362214784335689,26
117,6191,St-Zotique / Clark,45.531401,-73.612674,1.7988420097134084,17
118,6194,Tupper / Atwater,45.48885477417901,-73.58359336853027,1.9071107803893714,8
119,6003,Evans / Clark,45.511119,-73.567974,3.0531057668814263,28
120,6053,Belmont / Beaver Hall,45.502326,-73.565138,2.8215667924162697,14
121,6215,St-Cuthbert / St-Urbain,45.51494,-73.57821,2.6055287504570224,26
122,6032,Métro Place-d'Armes (Viger / St-Urbain),45.50623,-73.55976,2.2225983144386325,14
123,6091,Joseph Manceau / René-Lévesque,45.49172173024755,-73.57688951320596,1.9734591828429047,8
124,6202,Ste-Famille / Sherbrooke,45.510016,-73.570654,2.442443092853666,45
125,6322,St-Dominique / Villeray,45.537813,-73.624872,2.8428222459122265,29
126,6224,Villeneuve / du Parc,45.51829,-73.59235,2.6515197957337344,19
127,6205,Milton / du Parc,45.50971,-73.57354,3.252997149953943,45
128,6424,Président-Kennedy / McGill College,45.503063,-73.573986,3.1794081395205445,45
129,6016,Jacques-Le Ber / de la Pointe Nord,45.472503,-73.539285,2.194925796800678,40
130,6173,Berri / Cherrier,45.5191458,-73.5692414,2.708553870530988,26
131,6027,de Maisonneuve / Mansfield,45.5022921,-73.57325211,3.241721210604426,45
132,6274,de la Roche / St-Joseph,45.531164,-73.583695,3.2843122401215505,32
133,6104,Wolfe / René-Lévesque,45.516872646826776,-73.55417490005493,1.097462049688695,28
134,6207,Ste-Famille / des Pins,45.51281294953485,-73.57701659202576,0.7915920750428797,26
135,6127,Henri-Julien / de Castelneau,45.537877,-73.618323,0.8923200595786206,17
136,6105,Plessis / René-Lévesque,45.519376,-73.55195135,1.1714680961283426,28
137,6145,du Parc-La Fontaine / Duluth,45.52456565105688,-73.57207864522934,1.188417399260752,32
138,6181,Clark / Rachel,45.5173538,-73.58212888,1.3292656343377498,26
139,6043,Square Victoria,45.50206,-73.56295,1.1777756560417925,14
140,6009,Ste-Catherine / St-Hubert,45.51533014906273,-73.55914771556854,1.2753655167115852,28
141,6403,Georges-Vanier / Notre-Dame,45.4848591377443,-73.5715851187706,1.4141054031487648,31
142,6332,de Gaspé / de Liège,45.542579,-73.636557,1.371713116017335,29
143,6036,de la Commune / St-Sulpice,45.5042453,-73.55354458,1.5951034654314653,14
144,6186,St-André / Laurier,45.52955900967215,-73.5876018932322,1.7014313372909486,19
145,6413,Square Phillips 2,45.50345009602768,-73.56840401887894,1.6359003124971883,45
146,6132,Larivière / de Lorimier,45.52915520624575,-73.559410572052,1.9465392186449233,2
147,6432,de Maisonneuve / Greene,45.48697062,-73.58929306,2.0638796965035047,27
148,6029,Bel Air / St-Antoine,45.482779,-73.58452544,2.0362042565363536,27
149,6262,de la Roche /  de Bellechasse,45.53715922533132,-73.59747648239136,2.1770293142809005,46
150,6418,de Vendôme / de Maisonneuve,45.47422369503188,-73.60372066497803,2.3196751890734846,36
151,6258,Parc Père-Marquette (Chambord / Rosemont),45.53702583434782,-73.59316617250443,2.284169075431448,10
152,6196,Villeneuve / St-Laurent,45.52129287302808,-73.58936548233031,2.442876751042085,19
153,6916,Parc du Pélican (2e avenue / St-Joseph),45.544513,-73.571564,2.4411247957994218,43
154,6035,Viger/Jeanne Mance,45.504803,-73.5612,2.562172052880227,14
155,6040,St-Jacques / St-Pierre,45.5028,-73.55917,2.7622431840361164,14
156,6247,St-Dominique / St-Zotique,45.53228145673193,-73.61099146306515,2.8728322795740677,17
157,6271,Casgrain / de Bellechasse,45.529993,-73.604214,2.8535456194684845,46
158,6747,Waverly / St-Zotique,45.5306,-73.614616,2.9438053210826456,17
159,6011,St-André / St-Antoine,45.5140873,-73.55230004,3.1335891544791323,28
160,6065,de la Montagne / Sherbrooke,45.4996771,-73.57884854,3.194302757943186,8
161,6277,Elsdale/ Louis-Hebert,45.54918032376485,-73.59385818243027,1.7722057753632274,10
162,6381,Omer-Lavallée / Midway,45.5457759528664,-73.56217458844185,1.8978263031183462,43
163,6219,de l'Hôtel-de-Ville / Roy,45.51733310325783,-73.57443630695343,1.6190862400114023,26
164,6133,Terrasse Mercure / Fullum,45.535614,-73.566014,1.8328601808336276,43
165,6371,4e avenue / Masson,45.546978,-73.575515,1.5348238288002443,10
166,6106,René-Lévesque / Papineau,45.52114,-73.54926,1.711332681885905,2
167,6046,de la Gauchetière / Mansfield,45.49871,-73.56671,1.2982496189135764,41
168,6185,des Érables / Bélanger,45.5491255,-73.60091239,1.6697208336753833,42
169,6195,de Bullion / St-Joseph,45.5240365462478,-73.59014332294464,0.864022541100186,19
170,6050,de la Commune / McGill,45.4986731,-73.55256289,1.8706393863646247,14
171,6131,Fullum / Sherbrooke ,45.533924,-73.562425,0.6928267323659383,2
172,6335,du Rosaire / St-Hubert,45.54467,-73.621581,1.3482590868363082,29
173,6421,Cartier / Rosemont,45.541198,-73.590943,1.5786014800206245,10
174,6200,Maguire / St-Laurent,45.52457,-73.59588,0.7151961471464555,46
175,6129,de Bordeaux / Sherbrooke,45.53002706078813,-73.56317639350891,1.822839303172604,2
176,6212,Duluth / de l'Esplanade,45.51517174448816,-73.58100235462189,1.5435947498715639,26
177,6259,Dandurand / de Lorimier,45.540881,-73.584157,0.8261982525315611,10
178,6376,16e avenue / St-Joseph,45.55292309731551,-73.56575198471546,1.7397841811013772,43
179,6022,Angus (Molson / William-Tremblay),45.54172920185872,-73.56549382209778,1.682544404691796,43
180,6281,Resther / St-Joseph,45.5277271,-73.58628362,2.4738813459003732,19
181,6031,St-Antoine / St-François-Xavier,45.50449,-73.5592,2.2108397836135194,14
182,6229,Coloniale / du Mont-Royal,45.521155685854765,-73.58558893203735,0.9020816851864261,19
183,6111,Parthenais / Ste-Catherine,45.52620613795135,-73.54925036430359,1.5857944131673614,2
184,6121,Rouen / du Havre,45.534863725133626,-73.55545459320638,1.8436239823961227,2
185,6349,Ryde / Charlevoix,45.4757434,-73.5646007,2.1603756325169505,31
186,6024,des Érables / Sherbrooke,45.531367,-73.562624,1.851446560092281,2
187,6234,Bernard / Clark,45.52697,-73.60261,2.3719630352113934,46
188,6344,St-Dominique / Jean-Talon,45.535189,-73.617459,2.3906336350921373,17
189,6908,de Bellechasse / de St-Vallier,45.5331949357227,-73.60117256641388,2.55208086041271,46
190,6086,Shannon / Ottawa,45.49457934841001,-73.55875611305237,8.762689549755322,14
191,6103,Lespérance / Rouen,45.538799,-73.552496,8.209543144140255,2
192,6073,de Maisonneuve / Aylmer,45.50501,-73.57069,7.467278693224484,45
193,6075,University / des Pins,45.508356,-73.580498,7.149725352133598,45
194,6013,Sanguinet / de Maisonneuve,45.51339,-73.56255,6.776344155234738,28
195,6119,Dorion / Ontario,45.52697,-73.558021,6.540518519801403,2
196,6037,St-Nicolas / Place d'Youville,45.50197437877896,-73.55515658855438,7.053659391329477,14
197,6913,Drolet / Beaubien,45.533348,-73.605834,6.221660118346347,17
198,6377,Grand Trunk / Hibernia,45.47968,-73.56385,6.646185558534323,31
199,6260,Dandurand / Papineau,45.538589,-73.586302,6.319286533367368,10
200,6096,Lucien L'Allier / St-Jacques,45.49356916133978,-73.56857568025589,5.917078769100495,41
201,6197,Bordeaux / Masson,45.53895775569034,-73.58243197202682,6.326388938279055,10
202,6257,de St-Vallier / St-Zotique,45.536299,-73.607773,2.944800195030325,17
203,6924,de Bordeaux / Jean-Talon,45.54970407823863,-73.60551238059998,2.802857237555971,42
204,6218,Prince-Arthur / St-Urbain,45.5126137,-73.57372552,2.6232726776330284,26
205,6327,Faillon / St-Denis,45.53985704,-73.62038255,2.8066984024704995,17
206,6108,Logan / Fullum,45.528448693514136,-73.55108499526978,3.2030734687440243,2
207,6008,Sanguinet / Ste-Catherine,45.512734,-73.5611406,3.2627285730413456,28
208,6329,Gounod / St-Denis,45.54176571696572,-73.62612783908844,6.484829292234334,29
209,6126,Rouen / Fullum,45.53217,-73.55859,3.001217203056796,2
210,5007,Métro Longueuil - Université de Sherbrooke,45.523854,-73.519677,2.701631423874216,38
211,6324,de Liège / Lajeunesse,45.54554155627702,-73.6347484588623,2.9058273378132777,29
212,6251,de Gaspé / Dante,45.534377,-73.612278,2.577048107083622,17
213,6066,Mansfield / Ste-Catherine,45.5014018,-73.5718136,2.779227607225336,45
214,6925,des Écores / Jean-Talon,45.55244260913485,-73.60300183296204,5.516819061202765,42
215,6334,Lajeunesse / Jarry,45.543583,-73.6284,6.056106089876446,29
216,6084,Lambert-Closse / Tupper,45.489609,-73.582445,2.361251005015301,8
217,6928,Louis-Colin / McKenna,45.500035,-73.618105,5.191666628133869,49
218,6405,Duvernay / Charlevoix,45.48203995,-73.57486278,6.19896833574022,31
219,6090,Métro Lucien-L'Allier  (Lucien l'Allier / Argyle),45.49486,-73.57108,5.406039608498943,41
220,6396,Métro Pie-IX (Pierre-de-Coubertin / Pie-IX),45.553879,-73.551761,5.874180994556624,33
221,6021,de l'Hôtel-de-Ville / Sherbrooke,45.51453083866944,-73.56847107410431,4.747716115708361,28
222,6122,Logan / d'Iberville,45.53057,-73.54913,5.498605083348394,2
223,6321,Gary-Carter / St-Laurent,45.536123205883136,-73.62244516611099,2.8544277139991325,17
224,6362,1ère avenue / Rosemont,45.547997,-73.58523,2.649820776722987,10
225,6433,Hillside / Ste-Catherine,45.4829,-73.591,2.183814036228242,27
226,6261,Louis Hémon / Rosemont,45.54458,-73.588069,1.9334042572596861,10
227,6323,Guizot / St-Laurent,45.53963159810423,-73.63444805145264,1.6039292857654055,29
228,6915,Alma / Beaubien,45.53237205692519,-73.60643248568522,1.7344883565574454,17
229,5006,Collège Édouard-Montpetit,45.53722603812578,-73.49506705999374,1.990715411376988,38
230,6415,Wilson / Sherbrooke,45.4703,-73.6162,1.0831891163876672,36
231,6058,Cypress / Peel,45.49932551028458,-73.57176750898361,1.8825973239416927,45
232,6266,Louis-Hébert / Beaubien,45.54816007401565,-73.5920262336731,1.2723750611460394,10
233,6063,Drummond / de Maisonneuve,45.49947,-73.57591,1.993022063714611,45
234,6236,Laurier / Bordeaux,45.53725879867612,-73.57917040586472,1.7471686881318005,32
235,6246,Métro Outremont (Wiseman / Van Horne),45.520294969655005,-73.61482366919518,0.7729210056636321,0
236,6394,Valois / Ontario,45.54730353,-73.5438269,1.021575353598142,33
237,6168,Marmier / St-Denis,45.530871318676006,-73.59834551811218,1.2094969345635231,46
238,6112,Montcalm / de Maisonneuve,45.519157,-73.55786,0.780665987928281,28
239,6386,Métro Préfontaine (Moreau / Hochelaga),45.5414350841351,-73.55431437492369,1.8312134717221862,43
240,6333,Leman / de Chateaubriand,45.547218,-73.631103,1.4561898139243412,29
241,6171,Wolfe / Robin,45.5195,-73.560269,0.6171844492571734,28
242,6018,St-André / Ontario,45.51889,-73.56353,0.6573661628078873,28
243,6264,Chabot / de Bellechasse,45.5427,-73.59212,0.5262767598507628,10
244,6092,Crescent / René-Lévesque,45.49606,-73.57348,1.373008675436892,41
245,6435,Victoria Hall,45.4816,-73.6,0.3274320281198943,36
246,6270,Fabre / St-Zotique,45.543541,-73.600982,0.5977552209163302,42
247,6361,1ère avenue / Beaubien,45.550476,-73.590446,0.2074992628205231,10
248,6007,de l'Hôtel-de-Ville / Ste-Catherine,45.51164009357107,-73.5621839761734,0.08611652266382,28
249,6101,Métro Villa Maria (Décarie / Monkland),45.479483,-73.61979,0.24426724357526902,36
250,6375,Métro Place St-Henri (St-Ferdinand / St-Jacques),45.477249,-73.587238,0.5927109687391247,27
251,6402,Square Sir-Georges-Etienne-Cartier / Ste-Émilie,45.47266800851548,-73.585389778018,2.2644886461335387,27
252,6731,28e avenue / Rosemont,45.564353,-73.571244,2.5985101566720137,34
253,6002,Ste-Catherine / Dézéry,45.53923029698213,-73.54108236730099,1.9478237007284267,33
254,6250,Henri-Julien / Jean-Talon,45.53707,-73.61529,2.0389723841055694,17
255,6359,Parc Plage,45.502602268297935,-73.52750301361084,2.0421023196214505,23
256,6716,Francis / Fleury,45.563947,-73.655573,1.4791683253182224,44
257,6718,Grand Boulevard / Sherbrooke,45.466569,-73.623295,2.212652071948283,12
258,6340,De La Roche / Everett,45.544867,-73.614841,1.2699241012826639,42
259,6409,Lionel-Groulx / George-Vanier,45.48627862584162,-73.57359945774078,1.1335956615992882,41
260,6367,3e avenue / Dandurand,45.547362,-73.579221,1.2572054244948518,10
261,6422,Fleury / Lajeunesse,45.5536,-73.6616,3.539913416519384,15
262,6210,Métro Sauvé (Sauvé / Berri),45.55069206841976,-73.65636706352234,3.6052116930255074,15
263,6741,Notre-Dame / Chatham,45.48691857455084,-73.56942862272263,4.030953292461959,41
264,6272,Bordeaux / St-Zotique,45.546405643046654,-73.5984206199646,3.9463745205026792,42
265,6025,Notre-Dame / St-Gabriel,45.50714391928411,-73.55511903762817,3.2682169046714167,14
266,6167,Marquette / St-Grégoire,45.53703,-73.58584,4.31028268533879,10
267,6398,Desjardins / Ontario,45.551119,-73.540764,3.6842937656043375,33
268,6038,McGill / Place d'Youville,45.49975,-73.55566,3.546514103689072,14
269,6407,Métro Lionel-Groulx (Lionel-Groulx / Charlevoix),45.48392802,-73.57731164,3.376861773630463,27
270,6735,François-Perrault / L.-O.-David,45.561396,-73.601544,3.956141440657555,16
271,6360,8e avenue / Beaubien,45.553215,-73.58752,3.665392454099423,10
272,6728,Champagneur / Jean-Talon,45.526904,-73.624331,4.648048780656284,0
273,6278,Louis-Hébert / St-Zotique,45.55001,-73.59576,4.044301214319263,42
274,6393,Dézéry / Ontario,45.54094394520117,-73.54714214801788,3.9679516119720857,33
275,6903,Napoléon /  St-Dominique,45.516777,-73.577784,3.8019771028128106,26
276,6918,9e avenue / Dandurand,45.550769,-73.57711,4.231243912254913,34
277,6732,Fortune/wellington,45.477923,-73.559038,5.492162796787098,31
278,6313,Palm / St-Remi,45.470303,-73.589848,4.7261073676436425,27
279,6724,Square Sir-Georges-Étienne-Cartier / Léa Roback,45.471926,-73.58247,4.693355471319706,27
280,6307,Laval / Rachel,45.520018,-73.579463,4.2062117969538315,26
281,6120,Ontario / du Havre,45.5336609,-73.5521968,4.702806552144116,2
282,6316,Parc Jean-Brillant (Swail / Decelles),45.497011,-73.618575,3.7718584058739006,49
283,6711,Alexandra / Waverly,45.531938,-73.617842,4.358683799482363,17
284,5002,St-Charles / Châteauguay,45.5332,-73.5156,3.4618464556846655,38
285,6397,Marché Maisonneuve,45.55319389744088,-73.5398143529892,3.614296310819556,33
286,6347,Métro St-Michel (Shaughnessy / St-Michel),45.559199,-73.599658,3.220860295190484,16
287,6306,du Mont-Royal / Vincent-d'Indy,45.510086,-73.611429,3.301977791006732,0
288,6369,West Broadway / Sherbrooke,45.45635829051657,-73.64013027457986,3.3859929859270497,12
289,6721,Cadillac / Sherbrooke,45.57713595014113,-73.54628920555115,2.94320353809972,11
290,6723,26e avenue / Beaubien,45.564944,-73.577639,3.308107323457201,34
291,6730,35e avenue / Beaubien,45.570081,-73.573047,2.856453259434991,34
292,6076,Ville-Marie / Ste-Catherine,45.55806260336831,-73.52940759679768,2.699842912324996,33
293,6720,Ontario / Viau,45.5594818,-73.535496,2.9899627646734994,33
294,6404,Quesnel / Vinet,45.485889,-73.577514,3.1367285793703084,8
295,6357,12e avenue / St-Zotique,45.556905,-73.58925,2.32430811789231,16
296,6189,Chabot / Everett,45.550697703294965,-73.60953032970428,1.8095143261056716,42
297,6310,de Darlington / de la Côte-Ste-Catherine,45.50540324702016,-73.62116575241089,0.5191330198930965,49
298,6919,10e Avenue / Rosemont,45.552649,-73.581185,0.23048398630177744,34
299,6750,des Érables / Rachel,45.5334955551535,-73.56693148612976,0.4026072423402449,32
300,6927,Édouard-Montpetit / Stirling,45.50723,-73.615085,2.4639059025296186,49
301,6710,Georges-Baril / Fleury,45.558457,-73.65884,5.635754823662635,15
302,6708,de la Gauchetière / de Bleury,45.504561,-73.56279,8.406165969189239,14
303,6709,Le Caron / Marc-Sauvalle ,45.461685,-73.584039,4.544072558681264,3
304,6746,Métro Acadie (de l'Acadie / Beaumont),45.52341265422832,-73.623526096344,3.7178259169507317,0
305,6301,Parc Outremont (Bloomfield / Elmwood),45.518215,-73.603251,4.983522450121672,46
306,6279,Louis-Hébert / Bélanger,45.55158237169131,-73.59915554523468,11.259466687507507,42
307,6033,16e avenue / Beaubien,45.55848140595217,-73.58330368995667,8.495656466444029,34
308,6719,Park Row O / Sherbrooke,45.46072936353252,-73.63407254219055,10.170712015766048,12
309,6355,Ontario / Sicard,45.5566,-73.5373,10.917145955022518,33
310,6733,Rousselot / Villeray,45.548931,-73.616837,8.493754267922403,42
311,6315,Lacombe / de la Côte-des-Neiges,45.4968505432976,-73.62331956624985,8.385384118923737,49
312,6737,Jacques-Cassault / Christophe-Colomb,45.552123,-73.630103,6.7588316440316625,29
313,6305,Davaar / de la Côte-Ste-Catherine,45.514379,-73.610871,6.676722473655936,0
314,6303,Dunlop / Van Horne,45.514905,-73.619682,10.242659610195599,0
315,6736,Basile-Routhier / Gouin,45.55670791513632,-73.67063373327255,7.034475460685358,15
316,6366,Wilderton  / Van Horne,45.510042,-73.624835,8.117515503847054,0
317,6345,Louis-Hémon / Villeray,45.554931,-73.610711,11.326986498375296,42
318,6703,Jardin Botanique (Pie-IX / Sherbrooke),45.55520523993992,-73.55582308082374,9.956129356696266,43
319,6302,Stuart / de la Côte-Ste-Catherine,45.51538412515814,-73.60640823841095,9.838921932217682,46
320,5004,St-Charles / Charlotte,45.539824,-73.508752,1.3633697152172715,38
321,6419,Beaucourt / de la Côte-Ste-Catherine,45.491513,-73.633649,10.28081483555531,22
322,5005,St-Charles / St-Sylvestre,45.536408,-73.512776,12.220263420150912,38
323,6304,Rockland / Lajoie,45.515617,-73.614991,9.0722690866236,0
324,6343,Marquette / Villeray,45.55073714740538,-73.61522197723389,8.57215995231818,42
325,6700,de la Salle / Ste-Catherine,45.550056,-73.534576,7.02655485119784,33
326,6427,Rushbrooke /  Caisse,45.47069642604657,-73.56542240828276,5.814099751758412,31
327,6245,Bloomfield / Van Horne,45.5225858,-73.61265779,4.990205966680666,0
328,6356,Monkland / Girouard,45.4771,-73.6212,7.390482720463285,36
329,6098,Bishop / Ste-Catherine,45.49642,-73.57616,3.976291546396448,8
330,6125,Ellendale / Côte-des-Neiges,45.499757,-73.629298,2.588665875908625,49
331,6426,Willibrord / Verdun,45.459707,-73.571438,2.10141570423999,3
332,6379,Bannantyne / de l'Église,45.463257,-73.575621,2.161595085922009,3
333,6354,Marcil / Sherbrooke,45.471743,-73.613924,2.197282789278476,36
334,6312,de Kent / de la Côte-des-Neiges,45.501302,-73.633161,11.712065975368484,22
335,6115,Benny / Monkland,45.466965,-73.631664,9.939018138668722,12
336,6425,Ross / de l'Église,45.462742,-73.565845,9.25172230510159,3
337,6423,Hôpital général juif,45.496302,-73.629822,11.245101700406057,22
338,6363,Côte St-Antoine / Royal,45.4688,-73.6198,9.575020428539965,36
339,6713,30e avenue / St-Zotique,45.56822507,-73.57943594,10.263798513806643,34
340,6726,Hamel / Sauvé,45.560742,-73.65041,10.80446360173457,44
341,6416,Notre-Dame-de-Grâce / Décarie,45.477313,-73.615327,2.3212977509821138,36
342,6725,Métro Monk (Allard / Beaulieu),45.45085122,-73.5940272,1.3423216820475348,24
343,6706,Beatty / Verdun,45.450837,-73.572446,3.0979355453920228,3
344,6420,Trans Island / Queen-Mary,45.484489,-73.628834,3.6064389683516014,22
345,6331,Guizot / St-Denis,45.543376,-73.632267,4.094790662323902,29
346,6241,Querbes / Laurier,45.51745902334002,-73.59792709350586,5.575738085939356,46
347,6401,des Seigneurs / Notre-Dame,45.487692701413145,-73.56903970241545,4.931529799786821,41
348,6004,Hôtel-de-Ville (du Champs-de-Mars / Gosford),45.50922851966222,-73.55446994304657,3.6727358179888774,14
349,6717,de Kent / Victoria,45.494805,-73.638772,3.6540181229179587,22
350,6704,19e avenue / St-Zotique,45.561594,-73.585643,7.349574186046226,34
351,6006,18e avenue / Rosemont,45.55789545752947,-73.5765291005373,3.0741351869408438,34
352,6341,Regina / Verdun,45.467369,-73.570769,4.9837091416203885,3
353,6052,De la Commune / King,45.4980302,-73.55266482,3.9655744336436594,14
354,6330,de Gaspé / Jarry,45.540627,-73.630089,4.7951287588492715,29
355,6089,St-Jacques / Guy,45.49141473103975,-73.56995498790637,4.457644171157427,41
356,6727,de Montmorency / Richardson,45.48489566038642,-73.56011867523193,4.424002304315905,31
357,5003,Place Longueuil,45.5294,-73.5178,4.802148122235805,38
358,6738,Union / René-Lévesque,45.50233,-73.566497,4.461293347115216,45
359,6130,Sherbrooke / Frontenac,45.5367,-73.56081,5.29060314174318,2
360,6406,Marché Atwater,45.48020822800015,-73.57759863138199,4.01655458086144,27
361,6391,Aylwin / Ontario,45.544136,-73.545609,4.854975636354584,33
362,6023,de la Commune / Berri,45.51086,-73.54983,4.846392429324789,14
363,6346,Nicolet / Ste-Catherine,45.54459352523215,-73.53779464960098,4.55985978432921,33
364,6026,de la Commune / Place Jacques-Cartier,45.5076289,-73.55187625,4.865361671320598,14
365,6081,St-Alexandre / Ste-Catherine,45.50537693,-73.5676195,7.424593245696386,45
366,6429,Place du Commerce,45.46714,-73.54259,5.096995253739203,40
367,6017,Square Ahmerst / Wolfe,45.52106924,-73.5637571,4.983979325516993,28
368,6159,Ann / William,45.49589439175492,-73.5600972175598,5.370798847371466,14
369,6388,d'Orléans / Hochelaga,45.550668,-73.549502,5.60371015977572,33
370,6161,Cartier / St-Joseph,45.53576,-73.57867,5.934652342497036,32
371,6739,de Repentigny / Sherbrooke,45.58077,-73.544766,6.837726354872679,11
372,6070,Milton / Université,45.5064484,-73.57634872,4.6086292508854525,45
373,6097,Towers / Ste-Catherine,45.492504,-73.581088,4.769805674237768,8
374,6204,Milton / Durocher,45.5081439,-73.57477158,5.267809919135133,45
375,6139,des Érables / Gauthier,45.53240768,-73.5647763,5.762769088131327,2
376,6160,Garnier / St-Joseph,45.5329774553515,-73.58122229576111,5.653330142243499,32
377,6370,d'Orléans / Masson,45.557192,-73.569847,5.477096405990395,34
378,6177,St-Hubert / Rachel,45.5235066,-73.57641309,5.529787478508248,26
379,6158,Gilford / Brébeuf,45.53073,-73.58153,5.495793668854914,32
380,6156,Marie-Anne / de la Roche,45.52773841379083,-73.5762494802475,5.566660331761846,32
381,6151,des Érables / du Mont-Royal,45.53565,-73.57172,5.656917927677085,32
382,6170,de Mentana / Laurier,45.530046,-73.58677,5.762804425670954,19
383,6328,Drolet / Villeray,45.54015386355122,-73.62353146076202,4.366311354447832,29
384,6232,Hutchison / Van Horne,45.525021229212776,-73.61073732376099,5.814986179601896,0
385,6199,Clark / St-Viateur,45.52517156097331,-73.5993754863739,4.772586216342158,46
386,6095,Chomedey / de Maisonneuve,45.4917542,-73.58397156,4.940630711911329,8
387,6162,Fullum / St-Joseph,45.5398326,-73.57555881,5.083114388008164,32
388,6217,Vallières / St-Dominique,45.51939601464233,-73.58322681808204,4.275111037222636,26
389,6079,Hutchison/ Prince-Arthur,45.509864,-73.576105,4.182671303495469,45
390,6102,Lincoln / du Fort,45.493034,-73.583836,4.365223959409046,8
391,6220,Laval / Duluth,45.51923690964773,-73.57721507549286,5.29643037488355,26
392,6187,Resther / du Mont-Royal,45.52564322426449,-73.58174800872803,5.431958245503105,32
393,6228,Waverly / Van Horne,45.527363,-73.607723,4.218939399233454,46
394,6225,Villeneuve / St-Urbain,45.520188,-73.590559,5.600553988566575,19
395,6702,Chauveau / de l'Assomption,45.569789,-73.548081,5.016619643291347,11
396,6230,Waverly / St-Viateur,45.52402527115221,-73.60042154788971,5.197158698767145,46
397,6384,Darling / Sherbrooke,45.545425,-73.556527,4.184102329037077,43
398,6150,Messier / du Mont-Royal,45.53711414,-73.5710031,5.1354363783609625,32
399,6123,Alexandre-de-Sève / la Fontaine,45.523217,-73.558187,5.326279105175449,2
400,6255,Boyer / St-Zotique,45.53848,-73.60556,5.4814671744647185,17
401,6116,Plessis / Ontario,45.523584,-73.560941,5.179153869296798,28
402,6143,Rachel / Brébeuf,45.52689,-73.57264,5.150206783764615,32
403,6254,Boyer / Bélanger,45.54006,-73.60897,5.181213447707412,17
404,6243,Bloomfield / Bernard,45.52068774,-73.6084279,5.992426611685668,46
405,6188,Mentana / Marie-Anne,45.525983,-73.577808,5.69785845436018,32
406,6905,Parc Rosemont (Dandurand / d'Iberville),45.544377,-73.581018,5.119064757302196,10
407,6387,Métro Joliette  (Joliette / Hochelaga),45.547179,-73.551739,5.717447584566821,43
408,6910,Boyer / Beaubien,45.537041,-73.602026,7.447541927781466,46
409,6389,Boyer / Jean-Talon,45.541484,-73.612441,6.9570483072743325,17
410,6338,Boyer / Jarry,45.547283,-73.625377,4.569823709924769,29
411,6237,de Lanaudière / Gilford,45.532013,-73.580541,4.838857201564959,32
412,6907,Boyer / Rosemont,45.534136,-73.595478,5.504811494833207,46
413,6358,1ère  avenue /St-Zotique,45.551970494223056,-73.59377503395079,5.178256510925996,16
414,6190,Pontiac / Gilford,45.526712438356405,-73.58483791351318,4.782792152772484,19
415,6044,Roy / St-Christophe,45.5214607296648,-73.57061415910721,4.146319662157906,26
416,6929,St-André / St-Grégoire,45.53133,-73.59155,4.98977104260993,19
417,10002,Métro Charlevoix (Centre / Charlevoix),45.47822787309145,-73.56965124607086,4.601438021124823,31
418,6701,Marseille / Viau,45.5639212,-73.5489124,4.961194712334119,11
419,6309,5e avenue / Verdun,45.456049,-73.571877,4.598965405341509,3
420,6412,Complexe sportif Claude-Robillard (Émile-Journault),45.553262,-73.638615,0.8999987993143103,29
421,6339,Harvard / Monkland,45.4743,-73.6237,1.664126198331985,36
422,6749,St-Jacques / St-Laurent,45.506445,-73.556352,0.9494866437478637,14
423,6722,Bossuet / Pierre-de-Coubertin,45.57373304521766,-73.5394462198019,0.7081580628830841,11
424,6222,Jeanne Mance / du Mont-Royal,45.5176432,-73.5889283,1.6767346253654771,19
425,6385,Bordeaux /Gilford,45.536178,-73.57641,4.349851953553376,32
426,6503,Métro Parc  (Ogilvy / Hutchison),45.53035130173597,-73.6243924498558,2.033604731147732,0
427,6107,St-Mathieu /Ste-Catherine,45.493718,-73.579186,1.5117419215370906,8
428,6383,Bourbonnière / du Mont-Royal,45.55357073967113,-73.56049418449402,3.5335267722130523,43
429,6192,Berri / St-Grégoire,45.529802,-73.591766,6.491628156305085,19
430,6417,Desjardins / Hochelaga,45.55325,-73.54822,7.4644580374123946,33
431,6263,Hampton / Monkland,45.471161595177456,-73.62720608711243,2.3008885071248453,12
432,6501,Métro Jean-Drapeau,45.5120135,-73.53254691,6.348772257169114,23
433,6921,Augustin-Cantin / Shearer,45.48401829,-73.5634366,3.6630024436208504,31
434,6502,Casino de Montréal,45.5063732,-73.52457672,4.068077247273102,23
435,6193,de l'Esplanade / Fairmount,45.521495,-73.596758,5.006241177199402,46
436,6428,Berlioz / Boul de l'Ile des Soeurs,45.459593,-73.544377,4.726009399262983,40
437,6923,Marquette / Jean-Talon,45.54739744800976,-73.60766351222992,7.687142665468802,42
438,6208,Hutchison / des Pins,45.51069,-73.57805,5.937426760126476,26
439,6504,La Ronde,45.521769,-73.534859,5.897704304567862,23
440,6926,Marie-Anne / St-Hubert,45.524634,-73.578755,6.104759071435673,32
441,6707,Drake / de Sève,45.456351476720414,-73.58229249715805,6.638215014537778,3
442,6714,LaSalle / Sénécal,45.43443353453236,-73.58669400215149,7.126557444976591,47
443,6072,Metcalfe / de Maisonneuve,45.50171494932855,-73.57413053512573,6.655705457870323,45
444,6094,de Gaspé / Fairmount,45.525669,-73.593016,6.912731098702383,19
445,6712,LaSalle / Crawford,45.43791380065227,-73.58274042606354,7.203014340500696,47
446,6745,d'Outremont / Ogilvy,45.526856,-73.626672,7.407279054274773,0
447,6005,Metcalfe / Square Dorchester,45.50023354666628,-73.57112646102905,6.590081790202998,45
448,6240,Hudson / de Kent,45.505973,-73.629593,7.007833001766202,49
449,6715,Natatorium (LaSalle / Rolland),45.444433,-73.575788,6.1884861708972325,3
450,6705,5e avenue / Bannantyne,45.456365,-73.57614,6.649473255502545,3
451,6729,St-André / de Maisonneuve,45.517062,-73.559781,5.739716138385467,28
452,6744,Hamilton / Jolicoeur,45.456355,-73.597557,6.753166746352949,24
453,6742,Briand / Carron,45.462362,-73.59665,6.617894046360846,24
454,6136,Métro Laurier (Rivard / Laurier),45.52761627,-73.5891147,5.9924758787299535,19
455,6743,St-Marc / Sherbrooke,45.494514,-73.583368,6.5439932583727645,8
456,6051,de Gaspé / Marmier,45.529686,-73.601728,6.479011530432186,46
457,6178,Rivard / Rachel,45.5222776,-73.5775906,6.974088483191581,26
458,6226,Hôpital Maisonneuve-Rosemont (Rosemont / Chatelain),45.575707,-73.561562,6.052631946331745,7
708,6748,Greene / St-Ambroise,45.4787958452455,-73.57642382383347,1.425293561232136,27
878,6311,Drolet / St-Zotique,45.534795,-73.609546,,17
1207,6930,Paul Boutet / Jarry,45.55917755022557,-73.61413031816483,,42
1327,6752,Hutchison / Beaubien,45.5262464,-73.61374676,,0
1374,6753,St-Zotique / 39e avenue,45.57347113033397,-73.57497543096542,,7
1379,6754,Eadie/Dubois,45.45759682462104,-73.59052859581423,,24
1384,7015,LaSalle / 4e avenue,45.43074022417498,-73.5919108253438,,47
1388,7048,Métro Angrignon,45.446534244545326,-73.60354088363238,,24
1389,7056,Godin / Bannantyne,45.4475536968409,-73.57726335525513,,3
1390,7051,Jogues / Allard,45.44990081262039,-73.60025119094644,,24
1393,7059,Argyle / Bannantyne,45.45324567428996,-73.57681475579739,,3
1400,7057,2e avenue / Wellington,45.45789352611307,-73.56752824096475,,3
1401,7010,Belmore / Sherbrooke,45.459233060280816,-73.63740515022073,,12
1405,7058,Gordon / Wellington,45.46107799010839,-73.56730699539183,,3
1409,7060,de l'Église / de Verdun,45.46300108733155,-73.57156895217486,,3
1411,7013,Benny Crescent / Benny,45.46431546986341,-73.62556993961334,,12
1416,7054,Cote St-Paul / St-Ambroise,45.46766565386597,-73.59391784324544,,27
1436,7011,Girouard / de Terrebonne,45.47843159157294,-73.62489938735962,,36
1439,7070,Bourgeoys / Favard,45.47993042065731,-73.55592101812363,,31
1442,7053,Ropery / Augustin-Cantin,45.48091406771754,-73.56846034526825,,31
1443,7055,Greene / Workman,45.48118440698601,-73.5793487727642,,27
1449,7052,Shearer / Centre,45.483005619293046,-73.56218665838242,,31
1460,7068,Basin / Richmond,45.48760116378806,-73.56518536806107,,41
1464,7050,Ottawa / William,45.48954486106131,-73.56413930654526,,41
1467,7049,Ottawa / St-Thomas,45.490873602424855,-73.56238916516304,,41
1469,7076,Tupper / du Fort,45.49122961531575,-73.58078241348267,,8
1470,7081,Lincoln / Lambert Closse,45.49138379789788,-73.5860127210617,,8
1481,7047,Muray / Notre-Dame,45.49398569590685,-73.56327943525685,,41
1486,7071,St-Mathieu / Sherbrooke,45.49578910481176,-73.58259558677672,,8
1494,7062,Nazareth / William,45.49702385100359,-73.55922264978288,,14
1509,7079,Gauvin / Notre-Dame,45.50004272864201,-73.56041237711906,,14
1517,7012,McKenna / Édouard-Montpetit,45.50119450775172,-73.62062528729439,,49
1537,7080,President-Kennedy / Robert Bourassa,45.50440747040332,-73.57254266738892,,45
1538,7014,Édouard-Montpetit (Université de Montréal),45.50450093352018,-73.61765205860138,,49
1541,7069,Union / President-Kennedy,45.50499344809821,-73.57170313596725,,45
1547,7067,City Councillors / du President-Kennedy,45.50625103256782,-73.57139065861702,,45
1551,7066,St-Urbain / de la Gauchetière,45.50707812811467,-73.56139540672302,,14
1561,7033,Aylmer / Prince-Arthur,45.50856686947439,-73.57769787311554,,45
1575,7037,Prince-Arthur / Ste-Famille,45.5116382139746,-73.57463479042053,,26
1577,7001,Ste-Catherine / Ste-Élisabeth,45.51228321268213,-73.56182590126991,,28
1586,7007,Gare Canora,45.513780237755576,-73.63246321678162,,0
1591,7038,Clark / Guilbault,45.51440303253061,-73.57508204877377,,26
1613,7074,St-André / Robin,45.5181280865132,-73.56185138225555,,28
1614,7036,Hutchison / Edouard Charles,45.51826340169339,-73.59577462077141,,19
1617,7021,McEachran / Van Horne,45.51834130440452,-73.61664688243762,,0
1649,7022,Durocher / Bernard,45.52231759660231,-73.60693126916885,,46
1650,7034,Clark / Laurier,45.52258373689023,-73.59358858375344,,19
1654,7031,Berri / Rachel,45.5228780183634,-73.57749536633492,,26
1656,7072,Beaudry / Sherbrooke,45.52303459543551,-73.56540597975254,,28
1658,7073,Logan / de Champlain,45.5231943285584,-73.55584256350994,,2
1680,7077,Fullum / Jean Langlois,45.52612803739037,-73.54600220918655,,2
1683,7032,Drolet / Laurier,45.52625187609252,-73.58975838928018,,19
1685,7024,Berri / Gilford,45.5265658689096,-73.58542799949646,,19
1692,7026,Maguire / Henri-Julien,45.527041096087785,-73.59347056655677,,19
1698,7028,de Gaspé / St-Viateur,45.52774827884841,-73.59743893146515,,46
1702,7025,St-Dominique / Bernard,45.52793332015246,-73.60122251338906,,46
1708,7040,St-Urbain / Beaubien,45.52951033828327,-73.61067965626717,,17
1739,7042,Alexandra / Jean Talon,45.53233064590805,-73.62018674612045,,17
1749,7030,de Bordeaux / Marie-Anne,45.53340912723174,-73.57065707445145,,32
1758,7078,Hochelaga / Chapleau,45.53445294687473,-73.55965197086334,,2
1760,7045,Casgrain / Mozart,45.53472725603326,-73.6147928237915,,17
1780,7027,Terrasse Guindon / Fullum,45.537114135456825,-73.56913894414902,,32
1787,7029,Cartier / Masson,45.53805998459642,-73.58337676181691,,10
1796,7035,Fullum / Gilford,45.53922374455291,-73.57383679656778,,32
1804,7064,Clark / de Liège,45.539983846015616,-73.6381347477436,,29
1806,7061,Lajeunesse / de Castelnau,45.54039620809999,-73.61681789159775,,17
1811,7063,Henri-Julien / Jarry,45.54140622907085,-73.63007068634033,,29
1820,7018,Joliette / Ste-Catherine,45.54286796890454,-73.53822447359562,,33
1825,7065,de Lanaudière / Bélanger,45.54365085053057,-73.60565051436424,,42
1826,7020,St-Germain / Hochelaga,45.5436987529516,-73.55367332696915,,43
1827,7039,du Mont-Royal / Augustin-Frigon,45.543763151117474,-73.56772005558014,,43
1828,7002,Tolhurst / Fleury,45.54410128430579,-73.66738557815552,,15
1853,7006,Clark / Fleury,45.54764847825576,-73.6655656993389,,15
1858,7019,Jeanne d'Arc / Ontario,45.54960452693408,-73.54193866252899,,33
1860,7043,Ernest-Gendreau / du Mont-Royal,45.549713734001415,-73.56384828686714,,43
1862,7004,Émile-Journault / de Chateaubriand,45.54983321292286,-73.64063255488873,,29
1874,7008,Rousselot / Jarry,45.55076907833167,-73.62091094255447,,29
1882,7017,Bennett / Ste-Catherine,45.55302673666147,-73.53238195180893,,33
1891,7041,15e avenue / Masson,45.553913774821154,-73.57141882181168,,34
1893,7046,15e avenue / Dandurand,45.55479651443991,-73.57432097196579,,34
1896,7003,St-Charles / Sauvé,45.5560649285589,-73.65350246429443,,15
1912,7023,CHSLD St-Michel (Jarry / 8e avenue),45.56169026904608,-73.61051201820374,,16
1917,7005,Marquette / Fleury,45.56735205736566,-73.65378744900227,,44
1923,7009,CHSLD Benjamin-Victor-Rousselot (Dickson / Sherbrooke),45.57379781967792,-73.55034470558167,,11
1925,7075,CHSLD Éloria-Lepage (de la Pépinière / de Marseille),45.57694445420869,-73.54045271873474,,11
1927,7044,Hôpital Santa Cabrini (St-Zotique / Jeanne-Jugan),45.5793249650848,-73.5705041885376,,7
1929,7016,Métro Langelier (Sherbrooke / Langelier),45.58275715603392,-73.54244291782379,,35
1958,4000,Jeanne-d'Arc / Ontario,45.54945734212034,-73.54164898395538,,33
1960,7083,Parc de Bullion (de Bullion / Prince-Arthur),45.515604257816335,-73.57213497161865,,26
2040,7084,McTavish / Sherbrooke,45.502812816508936,-73.57602417469025,,45
2399,4002,Métro Place-des-Arts (de Maisonneuve / de Bleury),45.50619396370176,-73.56996774673462,,45
2445,4001,Parc Plage,45.50262858686735,-73.52774977684021,,23
2480,7082,Métro Lionel-Groulx (Atwater / Lionel-Groulx),45.4829412691004,-73.57974171638489,,27
3032,7085,de la Grande-Allée / Ste-Catherine,45.63137963655471,-73.50685738027096,,5
3033,7086,Parc de l'Hôtel-de-Ville (Dubé / Laurendeau),45.63065034476232,-73.49499464035034,,5
3034,7087,St-Jean-Baptiste / René-Lévesque,45.64155705644063,-73.50037515163422,,5
3035,7088,du Tricentenaire / de Montigny,45.65140583915357,-73.50041270256041,,5
3036,7089,du Tricentenaire / Prince-Albert,45.64954588445726,-73.49191546440125,,5
3037,7090,de St-Firmin / Fleury,45.57065664170425,-73.65184217691422,,44
3038,7091,Fleury / André-Jobin,45.57600034155425,-73.64676475524902,,44
3039,7092,Gare Bois-de-Boulogne,45.53972553109637,-73.67716491222382,,20
3040,7093,Laforest / Dudemaine,45.539806548176045,-73.6872661113739,,20
3041,7094,Alfred Laliberté / de Poutrincourt,45.53308032414161,-73.6945965886116,,20
3042,7095,Chabanel / de l'Esplanade,45.54068551727877,-73.65337640047073,,15
3043,7096,Chabanel / du Parc,45.53830765459552,-73.6548838019371,,15
3044,7097,Bélanger / des Galeries d'Anjou,45.59722114932571,-73.56279015541077,,7
3045,7098,Parc d'Antioche,45.59535188887634,-73.55858981609344,,35
3046,7099,Vezina / Victoria,45.49704689488635,-73.64321619272232,,22
3047,7100,Métro Namur (des Jockeys / Décarie),45.49404432109336,-73.65449488162994,,22
3048,7101,Métro de la Savane (de Sorel / Bougainville),45.50045094800223,-73.66142839193344,,21
3049,7102,Grand Boulevard / de Terrebonne,45.47054370043364,-73.63168001174927,,12
3050,7103,St-Joseph / 8e avenue Lachine,45.43147138678842,-73.67120504379272,,6
3051,7104,8e avenue / Notre-Dame Lachine,45.43498715540587,-73.67079868912697,,6
3052,7105,St-Joseph / 34e avenue Lachine,45.432839840726125,-73.69349151849747,,48
3053,7106,Victoria / 18e avenue Lachine,45.43579350588776,-73.6801904439926,,48
3054,7107,19e avenue / St-Joseph Lachine,45.43312379149661,-73.68140548467636,,48
3055,7108,Gagne / LaSalle,45.422451407155854,-73.601194024086,,47
3056,7109,Cégep André-Laurendeau,45.43566446235294,-73.60565185546875,,47
3057,7110,LaSalle / 67e avenue,45.415348837097696,-73.62651407718658,,47
3058,7111,Highlands / LaSalle,45.42612352042827,-73.65741580724716,,6
3059,7112,Newman / Senkus,45.44404309237571,-73.61375212669373,,24
3060,7113,Casgrain / Maguire,45.52593260934618,-73.59525293111801,,46
3061,7114,Smith / Peel,45.492837758845226,-73.5564199090004,,14
3062,7115,Métro Radisson (Sherbrooke / des Groseilliers),45.58917500418707,-73.53965610265732,,35
3063,7116,Métro Honoré-Beaugrand (Sherbrooke / Honoré-Beaugrand),45.5967964774917,-73.53517949581145,,35
3064,7117,François-Boivin / Bélanger,45.59259615276133,-73.56617510318756,,7
3065,7118,Tellier / des Futailles,45.58600999065885,-73.52183818817139,,13
3066,7119,Notre-Dame / Liébert,45.59280261038491,-73.51046562194824,,13
3067,7120,Notre-Dame / des Ormeaux,45.59920617334637,-73.5122399032116,,13
3068,7121,de Bruxelles / Hochelaga,45.59264808020603,-73.52521777153015,,13
3069,7122,de Belleville / Fleury,45.58116002977833,-73.64124342799187,,9
3070,7123,des Récollets / Martial,45.59089190991344,-73.64061713218689,,9
3071,7124,Dollard / Bernard,45.51678269880724,-73.61142262816429,,0
3072,7125,Rosemont / Viau,45.56833021674857,-73.56666326522826,,34
3073,7126,41e avenue / Rosemont,45.57178977666956,-73.56431499123573,,34
3074,7127,Jeanne-Mance / Beaubien,45.527650097960205,-73.61229971051216,,17
3075,7128,Métro Côte-Vertu (Gohier / Edouard-Laurin),45.512989627641865,-73.68249848484993,,21
3076,7129,de l'Eglise / St-Germain,45.51255920872999,-73.67701068520546,,21
3077,7130,Métro du Collège (Cartier / Décarie),45.50843904979172,-73.6729645729065,,21
3078,7131,Bibliothèque du Boisé (Thimens / Todd),45.50463493033909,-73.70443224906921,,37
3079,7132,Ste-Croix / Tassé,45.519492499678165,-73.6851042509079,,20
3080,7133,Thimens / Alexis-Nihon,45.50897852206792,-73.69856357574463,,37
3081,7134,Poirier / O'Brien,45.52246015438048,-73.69156435132027,,20
3082,7135,Cavendish / Poirier,45.50622283591452,-73.71148109436035,,37
3083,7136,Marcel-Laurin / Beaudet,45.50684315902468,-73.68175685405731,,21
3084,7137,de Lisieux / Jean-Talon,45.57934937043077,-73.58168095350266,,7
3085,7138,Dumesnil / Bélanger,45.587777966914885,-73.56935352087021,,7
3086,7139,Parc Plage,45.50282785563674,-73.52779269218445,,23
3087,7140,St-Jacques / des Seigneurs,45.48918571608228,-73.57190027832984,,41
3088,7141,Turgeon / Notre-Dame,45.47888852807208,-73.58198940753937,,27
3089,7142,Elgar / de l'Île-des-Sœurs,45.45682318753668,-73.546804189682,,40
3090,7143,LaSalle / Godin,45.44693448484644,-73.57219934463501,,3
3091,7144,Hickson / Wellington,45.46489251773306,-73.56699787080288,,3
3092,7145,Argyle / Bannantyne,45.453318765468914,-73.5767751932144,,3
3093,7146,Lusignan / St-Jacques,45.492222393331566,-73.56934815645218,,41
3094,7147,Métro de Castelnau (de Castelnau / Clark),45.53473935096963,-73.62076878547667,,17
3095,7148,Papineau / Émile-Journault,45.55988367688166,-73.63356828689575,,29
3096,7149,16e avenue / Jean-Talon,45.56244008398078,-73.59533339738846,,16
3097,7150,du Souvenir / Chomedey,45.55188644388879,-73.74444007873535,,18
3098,7151,Métro Montmorency (de l'Avenir / Jacques-Tétreault),45.558108953383545,-73.71959745883942,,39
3099,7152,Parc St-Claude (7e avenue / 8e rue),45.56266824826759,-73.6923623085022,,39
3100,7153,Métro Cartier (des Laurentides / Cartier),45.56002974868339,-73.68133574724197,,39
3716,6437,Melville / de Maisonneuve,45.4818402,-73.595379,,27
3721,8080,Robin / 15e rue,45.5594955,-73.6989176,,39
3722,8081,Legrand / Cartier,45.552535,-73.70749,,39
3723,8056,de Gaspé / Marmier,45.5295385,-73.6013469,,46
3724,8052,Cégep Marie-Victorin,45.6174998,-73.6060113,,25
3725,8012,Hôpital Sacré-Coeur (Forbes),45.5318647,-73.7135518,,4
3726,8015,Parc du Mall (Cholet / Honoré-Beaugrand),45.599843416440486,-73.54470133781433,,35
3727,8017,Parc Van Horne (de la Peltrie / de Westbury),45.4905688,-73.6385947,,22
3728,8011,Parc nature de l'Île-de-la-Visitation (Gouin / Bruchési),45.5782708,-73.6559513,,44
3729,8013,Parc Henri-Julien (Legendre / Henri-Julien),45.5460356,-73.6465985,,15
3730,8045,REV (Souligny / Desmarteau),45.6046208,-73.5159963,,13
3731,8042,des Ormeaux / de Grosbois,45.6059017,-73.5343695,,35
3732,8020,Parc MacDonald (Earnscliffe / Dupuis),45.484919,-73.6374146,,22
3733,8068,Place Rodolphe-Rousseau (Gohier / Édouard-Laurin),45.5129939,-73.6824985,,21
3734,8053,Molson / William-Tremblay,45.5415485,-73.5650124,,43
3735,8047,Parc St-Laurent (Salk / Henri-Bourassa),45.6055325,-73.6280242,,25
3736,8048,Parc Langelier - Marie-Victorin,45.6144298,-73.6122333,,25
3737,8046,Mairie d'arrondissement Montréal-Nord (Hébert / Place de l'Hôtel-de-Ville),45.5939452,-73.6384445,,9
3738,8071,Gare d'autocars de Montréal (Berri / Ontario),45.5169262,-73.5642573,,28
3739,8036,Messier / St-Joseph,45.5394606,-73.5760564,,32
3740,8069,Ateliers municipaux de St-Laurent (Cavendish / Poirier),45.5061758,-73.7111861,,37
3741,8022,Centre des loisirs (Tassé / Grenet),45.5147343,-73.691449,,37
3742,10,Métro Angrignon (Lamont /  des Trinitaires),45.44691,-73.60363,,24
3743,13,Métro de l'Église (Ross / de l'Église),45.462726,-73.565959,,3
3744,17,Tolhurst / Fleury,45.544149,-73.66752,,15
3745,21,St-Christophe / Cherrier,45.52029,-73.568119,,28
3746,31,Lespérance / de Rouen,45.538839,-73.552779,,2
3747,36,St-Cuthbert / St-Urbain,45.514773,-73.578312,,26
3748,38,Métro Vendôme (de Marlowe / de Maisonneuve),45.473868,-73.604538,,36
3749,43,Métro Université de Montréal (Édouard-Montpetit / Louis-Collin),45.50367,-73.61848,,49
3750,47,Métro Guy-Concordia (Guy / St-Catherine),45.495045,-73.57783,,8
3751,60,Durocher / Van Horne,45.524394,-73.611423,,0
3752,65,Bel Air / St-Antoine,45.482778,-73.584621,,27
3753,75,St-Joseph / 8e avenue Lachine,45.43155,-73.67112,,6
3754,76,St-Joseph / 34e avenue Lachine,45.433251,-73.693962,,48
3755,78,8e avenue / Notre-Dame Lachine,45.434898,-73.670819,,6
3756,79,Victoria / 18e avenue Lachine,45.435996,-73.680111,,48
3757,86,Parc Pratt (Dunlop / Van Horne),45.515007,-73.619788,,0
3758,92,Métro Rosemont (de St-Vallier / Rosemont),45.531783,-73.597793,,46
3759,99,7e avenue / St-Joseph Rosemont,45.547108,-73.569367,,43
3760,100,16e avenue / St-Joseph,45.55287,-73.565631,,43
3761,111,Hutchison / Sherbrooke,45.507717,-73.57167,,45
3762,120,Drolet / Faillon,45.539316,-73.620661,,17
3763,122,Lajeunesse / Jarry,45.543771,-73.628509,,29
3764,125,Cité des Arts du Cirque (Paul Boutet / des Regrattiers),45.559872,-73.615541,,42
3765,126,Rousselot / Jarry,45.550899,-73.62108,,29
3766,135,St-Alexandre / Ste-Catherine,45.505359,-73.567741,,45
3767,137,Jeanne-d'Arc / Ontario,45.549598,-73.541874,,33
3768,138,de la Salle / Ste-Catherine,45.549963,-73.534434,,33
3769,139,d'Orléans / Hochelaga,45.550768,-73.549427,,33
3770,140,Bennett / Ste-Catherine,45.553053,-73.532427,,33
3771,141,Marché Maisonneuve,45.553219,-73.539782,,33
3772,142,Ontario / Sicard,45.556262,-73.537441,,33
3773,143,de Ville-Marie / Ste-Catherine,45.557921,-73.529147,,33
3774,144,Ontario / Viau,45.559482,-73.535496,,33
3775,145,Gauthier / Papineau,45.529666,-73.567336,,32
3776,146,Gauthier / de Lorimier,45.531674,-73.565413,,2
3777,147,Gauthier / Parthenais,45.532926,-73.56378,,2
3778,148,de Bordeaux / Marie-Anne,45.533409,-73.570657,,32
3779,149,des Érables / Rachel,45.533547,-73.566867,,32
3780,150,Fullum / Sherbrooke,45.533924,-73.562425,,2
3781,151,Chapleau / Terrasse Mercure,45.536738,-73.565167,,43
3782,152,Bercy / Rachel,45.538403,-73.561964,,43
3783,153,Ste-Catherine / Dezery,45.539385,-73.541,,33
3784,154,Dézéry / Ontario,45.54111,-73.54755,,33
3785,155,Métro Préfontaine (Moreau / Hochelaga),45.54178,-73.555714,,43
3786,156,Valois / Ste-Catherine,45.54523,-73.53725,,33
3787,157,St-Germain / Hochelaga,45.543699,-73.553673,,43
3788,158,Aylwin / Ontario,45.544284,-73.54534,,33
3789,159,Métro Joliette  (Joliette / Hochelaga),45.546907,-73.551557,,43
3790,160,Valois / Ontario,45.547405,-73.544674,,33
3791,161,Nicolet / Sherbrooke,45.549695,-73.554647,,43
3792,162,Métro Assomption (Chauveau / de l'Assomption),45.569789,-73.548081,,11
3793,164,Métro Cadillac (de Cadillac / Sherbrooke),45.576963,-73.546836,,11
3794,165,Pierre-de-Coubertin / Langelier,45.580315,-73.535314,,35
3795,166,Métro Langelier (Langelier / Sherbrooke),45.582847,-73.542476,,35
3796,167,Boyer / du Mont-Royal,45.527432,-73.579917,,32
3797,168,Calixa-Lavallée / Rachel,45.527795,-73.571939,,32
3798,169,de Brébeuf / du Mont-Royal,45.529408,-73.578154,,32
3799,170,de Lanaudière / Marie-Anne,45.529326,-73.574806,,32
3800,171,Marquette / Rachel,45.529802,-73.57029,,32
3801,172,Garnier / du Mont-Royal,45.53092,-73.57674,,32
3802,173,Marquette / du Mont-Royal,45.53229,-73.57544,,32
3803,174,Cartier / Marie-Anne,45.532674,-73.571776,,32
3804,175,Chabot / du Mont-Royal,45.534185,-73.573589,,32
3805,176,Cartier / St-Joseph,45.535828,-73.57869,,32
3806,177,de Bordeaux / Gilford,45.53611,-73.576287,,32
3807,179,Messier / du Mont-Royal,45.537114,-73.571003,,32
3808,180,Laurier / de Bordeaux,45.537205,-73.579254,,32
3809,181,Cartier / Masson,45.538021,-73.583524,,10
3810,182,Chapleau / du Mont-Royal,45.53867,-73.56936,,43
3811,183,de Bordeaux / Masson,45.538984,-73.582445,,10
3812,184,Fullum / Gilford,45.539224,-73.573837,,32
3813,185,Parc des Rapides (LaSalle / 6e avenue),45.429471,-73.593099,,47
3814,186,LaSalle / Crawford,45.437914,-73.58274,,47
3815,187,Natatorium (LaSalle / Rolland),45.444547,-73.575091,,3
3816,188,Bibliothèque de Verdun (Brown / Bannantyne),45.448262,-73.577856,,3
3817,189,Beatty / de Verdun,45.45073,-73.572575,,3
3818,190,Métro Monk (Allard / Beaulieu),45.450851,-73.594027,,24
3819,191,Argyle / Bannantyne,45.453319,-73.576775,,3
3820,192,Argyle / de Verdun,45.453016,-73.571915,,3
3821,193,Hamilton / Jolicoeur,45.456355,-73.597557,,24
3822,194,5e avenue / Bannantyne,45.456365,-73.57614,,3
3823,196,4e avenue / de Verdun,45.456885,-73.572607,,3
3824,197,Dubois / Eadie,45.457597,-73.590529,,24
3825,198,2e avenue / Wellington,45.457893,-73.567528,,3
3826,199,Métro Verdun (Willibrord / de Verdun),45.459488,-73.572092,,3
3827,200,Gordon / Wellington,45.461078,-73.567307,,3
3828,201,Parc St-Paul (Le Caron / Marc-Sauvalle),45.461685,-73.584039,,3
3829,202,St-Patrick / Briand,45.463397,-73.596436,,24
3830,203,de l'Église / de Verdun,45.463001,-73.571569,,3
3831,204,de l'Église / Bannantyne,45.463254,-73.575879,,3
3832,205,Regina / de Verdun,45.467369,-73.570769,,3
3833,206,Métro Lasalle (de Rushbrooke / Caisse),45.470696,-73.565422,,31
3834,207,Métro Laurier (Rivard / Laurier),45.527616,-73.589115,,19
3835,208,St-Hubert / Laurier,45.52931,-73.588657,,19
3836,209,Hélène-Baillargeon / St-Denis,45.52974,-73.59527,,46
3837,211,de Mentana / Laurier,45.53045,-73.587638,,19
3838,214,Laurier / de Brébeuf,45.532514,-73.584811,,32
3839,215,Garnier / St-Joseph,45.532978,-73.581222,,32
3840,216,de Lanaudière / Laurier,45.533314,-73.583737,,32
3841,217,Gerry-Boulet / St-Grégoire,45.533735,-73.589307,,10
3842,218,Marquette / Laurier,45.53543,-73.5822,,32
3843,221,Métro Crémazie (Crémazie / Lajeunesse),45.546408,-73.638428,,29
3844,222,Clark / Fleury,45.547581,-73.665234,,15
3845,223,Émile-Journault / de Chateaubriand,45.549833,-73.640633,,29
3846,224,Basile-Routhier / Chabanel,45.549868,-73.647657,,15
3847,225,Métro Sauvé (Berri / Sauvé),45.550692,-73.656367,,15
3848,226,Jacques-Casault / Christophe-Colomb,45.552123,-73.630103,,29
3849,227,Complexe sportif Claude-Robillard,45.553262,-73.638615,,29
3850,228,Fleury / Lajeunesse,45.553579,-73.662083,,15
3851,229,Métro Henri-Bourassa (Henri-Bourassa / Millen),45.556751,-73.667162,,15
3852,230,Chambord / Fleury,45.559828,-73.658325,,15
3853,231,Hamel / Sauvé,45.560762,-73.650561,,44
3854,232,Francis / Fleury,45.563872,-73.655568,,44
3855,233,Marquette / Fleury,45.567352,-73.653787,,44
3856,234,de l'Hôtel-de-Ville / Sherbrooke,45.514565,-73.568407,,28
3857,235,Square St-Louis (du Square St-Louis / Laval),45.516091,-73.570129,,26
3858,236,Parc Jeanne-Mance (du Mont-Royal / du Parc),45.517,-73.589,,19
3859,237,de l'Esplanade / du Mont-Royal,45.518253,-73.588338,,19
3860,238,Villeneuve / du Parc,45.51829,-73.59235,,19
3861,239,Roy / St-Denis,45.51908,-73.5727,,26
3862,240,Berri / Cherrier,45.519088,-73.569509,,26
3863,241,Laval / Duluth,45.519216,-73.57718,,26
3864,242,du Mont-Royal / Clark,45.51941,-73.58685,,19
3865,243,Laval / Rachel,45.520179,-73.579424,,26
3866,244,Villeneuve / St-Urbain,45.520188,-73.590559,,19
3867,245,St-André / Cherrier,45.520524,-73.567697,,28
3868,246,Duluth / St-Denis,45.520604,-73.575984,,26
3869,247,Roy / St-André,45.521564,-73.570367,,26
3870,248,de Bullion / du Mont-Royal,45.521751,-73.585268,,19
3871,249,Rivard / Rachel,45.522278,-73.577591,,26
3872,250,Laval / du Mont-Royal,45.522365,-73.584146,,19
3873,251,St-Hubert / Duluth,45.522426,-73.574184,,26
3874,252,Berri / Rachel,45.522719,-73.577204,,26
3875,253,Beaudry / Sherbrooke,45.523035,-73.565395,,28
3876,254,du Parc-La Fontaine / Roy,45.522866,-73.568377,,28
3877,255,Villeneuve / de l'Hôtel-de-Ville,45.523544,-73.587332,,19
3878,256,Métro Mont-Royal (Rivard / du Mont-Royal),45.524673,-73.58255,,19
3879,257,Marie-Anne / St-Hubert,45.524683,-73.578897,,32
3880,258,du Parc-La Fontaine / Duluth,45.524518,-73.571977,,32
3881,259,Calixa-Lavallée / Sherbrooke,45.52479,-73.56545,,28
3882,260,de Mentana / Rachel,45.524963,-73.575559,,32
3883,261,Resther / du Mont-Royal,45.525628,-73.581775,,32
3884,262,de Mentana / Marie-Anne,45.526027,-73.577859,,32
3885,263,Métro Laurier (Berri / St-Joseph),45.527231,-73.586726,,19
3886,264,Pontiac / Gilford,45.527009,-73.585766,,19
3887,265,Émile-Duployé / Sherbrooke,45.527201,-73.564729,,2
3888,266,Marie-Anne / de la Roche,45.527758,-73.576185,,32
3889,267,Gilford / de Brébeuf,45.530816,-73.581626,,32
3890,268,Gilford / de Lanaudière,45.532008,-73.580444,,32
3891,270,St-Hubert / René-Lévesque,45.514335,-73.556464,,28
3892,271,Sanguinet / Ontario,45.514767,-73.565491,,28
3893,272,Ste-Catherine / Labelle,45.515065,-73.55923,,28
3894,273,St-André / Ste-Catherine,45.516427,-73.558112,,28
3895,274,Gare d'autocars de Montréal (Berri / Ontario),45.516897,-73.563949,,28
3896,275,de Maisonneuve / Berri,45.51567,-73.561009,,28
3897,276,Wolfe / René-Lévesque,45.516818,-73.554188,,28
3898,277,St-André / Robin,45.518128,-73.561851,,28
3899,278,St-André / Ontario,45.51889,-73.56353,,28
3900,279,Montcalm / de Maisonneuve,45.519139,-73.557866,,28
3901,280,Plessis / René-Lévesque,45.519373,-73.551958,,28
3902,281,Wolfe / Robin,45.519581,-73.560116,,28
3903,283,Montcalm / Ontario,45.521081,-73.562275,,28
3904,284,Papineau / René-Lévesque,45.52114,-73.54926,,2
3905,285,Alexandre-DeSève / Ste-Catherine,45.52123,-73.553861,,2
3906,286,Logan / de Champlain,45.523194,-73.555843,,2
3907,288,Plessis / Ontario,45.523492,-73.56073,,28
3908,289,Métro Papineau (Cartier / Ste-Catherine),45.52353,-73.55199,,2
3909,290,de Champlain / Ontario,45.525109,-73.560206,,2
3910,292,Jean Langlois / Fullum,45.5265,-73.545753,,2
3911,293,Dorion / Ontario,45.526991,-73.558212,,2
3912,294,Logan / Fullum,45.528366,-73.551171,,2
3913,295,Poupart / Ste-Catherine,45.529002,-73.546199,,2
3914,296,Larivière / de Lorimier,45.529134,-73.559234,,2
3915,297,de Bordeaux / Sherbrooke,45.529971,-73.563053,,2
3916,298,Logan / d'Iberville,45.53057,-73.54913,,2
3917,299,Poupart / Ontario,45.531939,-73.553439,,2
3918,302,Métro Frontenac (Ontario / du Havre),45.533706,-73.552179,,2
3919,303,Hochelaga / Chapleau,45.534453,-73.559652,,2
3920,304,du Havre / de Rouen,45.534563,-73.554787,,2
3921,305,Hogan / Ontario,45.535295,-73.55116,,2
3922,306,Sherbrooke / Frontenac,45.5367,-73.56081,,2
3923,307,Wurtele / de Rouen,45.537628,-73.553394,,2
3924,309,University / Milton,45.506511,-73.576669,,45
3925,310,University / Prince-Arthur,45.507402,-73.578444,,45
3926,311,Milton / Durocher,45.508141,-73.57493,,45
3927,312,Aylmer / Prince-Arthur,45.508567,-73.577698,,45
3928,313,Milton / du Parc,45.509361,-73.573864,,45
3929,314,Hutchison / Prince-Arthur,45.509759,-73.576107,,45
3930,315,Ste-Famille / Sherbrooke,45.510072,-73.570752,,45
3931,316,Prince-Arthur / du Parc,45.51059,-73.57547,,26
3932,317,Métro St-Laurent (de Maisonneuve / St-Laurent),45.51066,-73.56497,,28
3933,318,Hutchison / des Pins,45.51069,-73.57805,,26
3934,321,de l'Hôtel-de-Ville / Ste-Catherine,45.51166,-73.562136,,28
3935,322,Milton / Clark,45.512541,-73.570677,,26
3936,323,Prince-Arthur / St-Urbain,45.512587,-73.573739,,26
3937,324,Sanguinet / Ste-Catherine,45.512797,-73.561463,,28
3938,325,Ste-Famille / des Pins,45.512832,-73.576888,,26
3939,326,Clark / Prince-Arthur,45.513303,-73.572961,,26
3940,327,Sanguinet / de Maisonneuve,45.513405,-73.562594,,28
3941,328,Guilbault / Clark,45.514108,-73.57523,,26
3942,329,Metcalfe / St-Catherine,45.500832,-73.572459,,45
3943,330,Parc Jeanne Mance (monument sir George-Etienne Cartier),45.51484,-73.584779,,26
3944,331,Duluth / de l'Esplanade,45.515092,-73.581142,,26
3945,332,BAnQ (Berri / de Maisonneuve),45.515299,-73.561273,,28
3946,333,Parc de Bullion (de Bullion / Prince-Arthur),45.515604,-73.572135,,26
3947,334,Roy / St-Laurent,45.515616,-73.575808,,26
3948,336,Duluth / St-Laurent,45.516876,-73.57946,,26
3949,337,de l'Hôtel-de-Ville / Roy,45.517401,-73.574605,,26
3950,338,Clark / Rachel,45.517354,-73.582129,,26
3951,339,St-Dominique / Rachel,45.518593,-73.581566,,26
3952,340,Vallières / St-Laurent,45.518967,-73.583616,,26
3953,341,U. Concordia - Campus Loyola (Sherbrooke / West Broadway),45.457509,-73.639485,,12
3954,342,Park Row O / Sherbrooke,45.460729,-73.634073,,12
3955,343,Benny / Sherbrooke,45.464877,-73.626597,,12
3956,344,Grand Boulevard / Sherbrooke,45.466569,-73.623295,,12
3957,346,de la Côte St-Antoine / Royal,45.468927,-73.61987,,36
3958,347,de Melrose / Sherbrooke,45.46982,-73.616961,,36
3959,348,de Hampton / de Monkland,45.471179,-73.627002,,12
3960,349,Marcil / Sherbrooke,45.471743,-73.613924,,36
3961,350,Harvard / de Monkland,45.474565,-73.624036,,36
3962,351,de Monkland / Girouard,45.477107,-73.621438,,36
3963,352,Notre-Dame-de-Grâce / Décarie,45.477353,-73.615372,,36
3964,354,Métro Snowdon (de Westbury / Queen-Mary),45.485385,-73.628142,,49
3965,355,Lionel-Groulx / George-Vanier,45.486219,-73.573747,,41
3966,356,Canning / Notre-Dame,45.486319,-73.570233,,31
3967,357,des Seigneurs / Notre-Dame,45.487723,-73.569083,,41
3968,358,Métro Georges-Vanier (St-Antoine / Canning),45.4891,-73.57656,,8
3969,359,Métro Atwater (Atwater / Ste-Catherine),45.489476,-73.584566,,8
3970,360,Atwater / Sherbrooke,45.491226,-73.58763,,8
3971,361,Beaucourt / de la Côte-Ste-Catherine,45.491513,-73.633649,,22
3972,362,Chomedey / de Maisonneuve,45.4918,-73.584006,,8
3973,363,Ste-Catherine / St-Marc,45.492897,-73.580294,,8
3974,364,Lincoln / du Fort,45.493034,-73.583836,,8
3975,365,St-Mathieu / Ste-Catherine,45.49368,-73.579146,,8
3976,366,St-Marc / Sherbrooke,45.494514,-73.583368,,8
3977,367,de Kent / Victoria,45.494564,-73.638702,,22
3978,368,Jean-Brillant / de la Côte-des-Neiges,45.495415,-73.622341,,49
3979,369,Hôpital général juif (de la Côte Ste-Catherine / Légaré),45.496302,-73.629822,,22
3980,370,Mackay / de Maisonneuve,45.49683,-73.57913,,8
3981,371,Swail / Decelles,45.497055,-73.618652,,49
3982,372,Ellendale / de la Côte-des-Neiges,45.499757,-73.629298,,49
3983,373,de Kent / de la Côte-des-Neiges,45.501449,-73.633051,,22
3984,374,de Soissons / de Darlington,45.506899,-73.623526,,49
3985,375,Parc Kent (de Kent / Hudson),45.505721,-73.629459,,49
3986,376,Édouard-Montpetit / de Stirling,45.50723,-73.615085,,49
3987,377,Wilderton  / Van Horne,45.510142,-73.624752,,0
3988,378,Tupper / du Fort,45.49123,-73.580782,,8
3989,379,St-Mathieu / Sherbrooke,45.495789,-73.582596,,8
3990,381,Crescent / de Maisonneuve,45.498112,-73.577615,,8
3991,382,Drummond / Ste-Catherine,45.498639,-73.574227,,45
3992,383,de la Cathédrale / René-Lévesque,45.499191,-73.569421,,41
3993,384,Cypress / Peel,45.499325,-73.571768,,45
3994,385,Drummond / de Maisonneuve,45.49947,-73.57591,,45
3995,386,de la Montagne / Sherbrooke,45.499745,-73.579034,,8
3996,387,Notre-Dame / Gauvin,45.500105,-73.560199,,14
3997,388,Métro Peel (de Maisonneuve / Stanley),45.50038,-73.57507,,45
3998,389,de la Gauchetière / Robert-Bourassa,45.500606,-73.565448,,41
3999,392,Stanley / Sherbrooke,45.501041,-73.577178,,45
4000,393,Metcalfe / de Maisonneuve,45.501715,-73.57413,,45
4001,394,St-Nicolas / Place d'Youville,45.501967,-73.555153,,14
4002,395,Square Victoria (Viger / du Square-Victoria),45.50206,-73.56295,,14
4003,396,Union / René-Lévesque,45.50235,-73.566583,,45
4004,397,St-Jacques / St-Pierre,45.502786,-73.559134,,14
4005,398,McTavish / Sherbrooke,45.502813,-73.576024,,45
4006,400,du President-Kennedy / Union,45.505011,-73.572028,,45
4007,401,St-Antoine / St-François-Xavier,45.504591,-73.559188,,14
4008,403,Viger / Chenneville,45.505312,-73.560891,,14
4009,404,Métro Place-d'Armes (Viger / St-Urbain),45.50623,-73.55976,,14
4010,405,City Councillors / du President-Kennedy,45.506251,-73.571391,,45
4011,406,St-Jacques / St-Laurent,45.506421,-73.556466,,14
4012,407,St-Urbain / de la Gauchetière,45.507078,-73.561395,,14
4013,408,Notre-Dame / St-Gabriel,45.507144,-73.555119,,14
4014,409,du Champ-de-Mars / Gosford,45.509655,-73.554009,,14
4015,410,Métro Champ-de-Mars (Viger / Sanguinet),45.510351,-73.556508,,28
4016,411,St-André / St-Antoine,45.514114,-73.552645,,28
4017,412,Ottawa / William,45.489727,-73.564063,,41
4018,413,Joseph-Manseau / René-Lévesque,45.491687,-73.576767,,8
4019,414,Notre-Dame / de la Montagne,45.493029,-73.564818,,41
4020,415,Lucien L'Allier / St-Jacques,45.493569,-73.568576,,41
4021,418,Métro Lucien-L'Allier  (Lucien l'Allier / Argyle),45.494872,-73.571124,,41
4022,419,Duke / Brennan,45.495581,-73.553711,,14
4023,420,Bishop / Ste-Catherine,45.496583,-73.576502,,8
4024,421,de la Commune / King,45.497515,-73.552571,,14
4025,422,William / St-Henri,45.498919,-73.557254,,14
4026,423,Queen / Wellington,45.497605,-73.55535,,14
4027,425,Labadie / du Parc,45.519895,-73.596827,,46
4028,427,de l'Esplanade / Fairmount,45.521496,-73.596827,,46
4029,428,Jeanne-Mance / St-Viateur,45.523027,-73.60184,,46
4030,429,Waverly / St-Viateur,45.523856,-73.600127,,46
4031,430,de Bullion / St-Joseph,45.524037,-73.590143,,19
4032,431,Bernard / Jeanne-Mance,45.524287,-73.604973,,46
4033,432,Maguire / St-Laurent,45.524628,-73.595811,,46
4034,433,Hutchison / Van Horne,45.524942,-73.610606,,0
4035,434,de Gaspé / Fairmount,45.525648,-73.592928,,19
4036,435,St-Viateur / St-Laurent,45.525931,-73.598839,,46
4037,436,Drolet / Laurier,45.526252,-73.589758,,19
4038,437,St-Dominique / St-Viateur,45.526557,-73.598276,,46
4039,438,Maguire / Henri-Julien,45.527041,-73.593471,,19
4040,439,Waverly / Van Horne,45.527363,-73.607723,,46
4041,440,Casgrain / St-Viateur,45.527513,-73.598791,,46
4042,441,de Gaspé / St-Viateur,45.527748,-73.597439,,46
4043,442,Henri-Julien / du Carmel,45.527839,-73.594821,,46
4044,443,St-Dominique / Bernard,45.527933,-73.601223,,46
4045,444,Berlioz / de l'Île des Soeurs,45.459986,-73.543956,,40
4046,445,Place du Commerce,45.46714,-73.54259,,40
4047,447,Léa-Roback / Sir-Georges-Etienne-Cartier,45.471669,-73.582644,,27
4048,448,Jacques-Le Ber / de la Pointe Nord,45.472503,-73.539285,,40
4049,449,Ste-Émilie / Sir-Georges-Etienne-Cartier,45.472668,-73.58539,,27
4050,450,Ryde / Charlevoix,45.475743,-73.564601,,31
4051,451,Métro Place St-Henri (St-Ferdinand / St-Jacques),45.477249,-73.587238,,27
4052,452,Fortune / Wellington,45.477923,-73.559038,,31
4053,453,Métro Charlevoix (Centre / Charlevoix),45.478228,-73.569651,,31
4054,455,Bourgeoys / Favard,45.47993,-73.555921,,31
4055,456,Ropery / Augustin-Cantin,45.480914,-73.56846,,31
4056,459,Duvernay / Charlevoix,45.482098,-73.574876,,31
4057,461,Shearer / Centre,45.483006,-73.562187,,31
4058,462,Charlevoix / Lionel-Groulx,45.483928,-73.577312,,27
4059,463,Augustin-Cantin / Shearer,45.484018,-73.563437,,31
4060,464,Richardson / de Montmorency,45.48498,-73.560333,,31
4061,465,Georges-Vanier / Notre-Dame,45.485048,-73.571963,,31
4062,466,Quesnel / Vinet,45.485889,-73.577514,,8
4063,467,Guy / Notre-Dame,45.490042,-73.567111,,41
4064,468,Young / Wellington,45.492825,-73.557978,,14
4065,469,de la Commune / St-Sulpice,45.504242,-73.55347,,14
4066,470,de la Commune / Place Jacques-Cartier,45.50761,-73.551836,,14
4067,471,de la Commune / Berri,45.51086,-73.54983,,14
4068,472,Rachel / de Brébeuf,45.52689,-73.57264,,32
4069,474,Métro Acadie (de l'Acadie / Beaumont),45.523575,-73.623443,,0
4070,477,Métro de la Savane (de Sorel / Bougainville),45.500451,-73.661428,,21
4071,478,Dollard / Bernard,45.516783,-73.611423,,0
4072,479,Casgrain / Maguire,45.525933,-73.595253,,46
4073,480,Jeanne-Mance / Beaubien,45.52765,-73.6123,,17
4074,481,Alfred Laliberté / de Poutrincourt,45.53308,-73.694597,,20
4075,482,Chabanel / du Parc,45.538308,-73.654884,,15
4076,483,Gare Bois-de-Boulogne,45.539726,-73.677165,,20
4077,484,Laforest / Dudemaine,45.539806,-73.687266,,20
4078,485,Chabanel / de l'Esplanade,45.540686,-73.653376,,15
4079,486,Papineau / Émile-Journault,45.559884,-73.633568,,29
4080,487,16e avenue / Jean-Talon,45.56244,-73.595333,,16
4081,488,Rosemont / Viau,45.56833,-73.566663,,34
4082,489,de St-Firmin / Fleury,45.570657,-73.651842,,44
4083,490,41e avenue / Rosemont,45.57179,-73.564315,,34
4084,491,Fleury / André-Jobin,45.576,-73.646765,,44
4085,492,de Lisieux / Jean-Talon,45.579349,-73.581681,,7
4086,493,de Belleville / Fleury,45.58116,-73.641243,,9
4087,495,Dumesnil / Bélanger,45.587778,-73.569354,,7
4088,496,des Récollets / Martial,45.590892,-73.640617,,9
4089,497,François-Boivin / Bélanger,45.592596,-73.566175,,7
4090,498,Notre-Dame / Liébert,45.592803,-73.510466,,13
4091,499,Liébert / Hochelaga,45.595875,-73.523528,,13
4092,500,Parc d'Antioche (Place d'Antioche / St-Zotique),45.595352,-73.55859,,35
4093,501,Bélanger / des Galeries d'Anjou,45.597221,-73.56279,,7
4094,502,William / Robert-Bourassa,45.497165,-73.55933,,14
4095,504,Gagne / LaSalle,45.422451,-73.601194,,47
4096,505,Parc Highlands (Highlands / LaSalle),45.426124,-73.657416,,6
4097,506,Cégep André-Laurendeau,45.435665,-73.605652,,47
4098,507,Newman / Senkus,45.444043,-73.613752,,24
4099,508,LaSalle / Godin,45.446934,-73.572199,,3
4100,509,Elgar / de l'Île-des-Sœurs,45.456823,-73.546804,,40
4101,510,Hickson / Wellington,45.464892,-73.566998,,3
4102,511,Grand Boulevard / de Terrebonne,45.470544,-73.63168,,12
4103,512,Turgeon / Notre-Dame,45.478888,-73.581989,,27
4104,513,St-Jacques / des Seigneurs,45.489186,-73.5719,,41
4105,514,des Bassins / du Séminaire,45.490452,-73.560172,,41
4106,515,Parc Plage,45.502828,-73.527793,,23
4107,516,Lusignan / St-Jacques,45.492222,-73.569348,,41
4108,517,Bibliothèque du Boisé (Thimens / Todd),45.504635,-73.704432,,37
4109,519,Beaudet / Marcel-Laurin,45.506843,-73.681757,,21
4110,520,Métro du Collège (Cartier / Décarie),45.508439,-73.672965,,21
4111,521,Thimens / Alexis-Nihon,45.508978,-73.698564,,37
4112,522,de l'Eglise / St-Germain,45.512559,-73.677011,,21
4113,523,Ste-Croix / Tassé,45.519492,-73.685104,,20
4114,524,O'Brien / Poirier,45.52246,-73.691564,,20
4115,525,Casino de Montréal,45.506373,-73.524577,,23
4116,526,Quai de la navette fluviale,45.513741,-73.538382,,23
4117,527,Métro Longueuil - Université de Sherbrooke,45.523319,-73.520127,,38
4118,528,Place Longueuil,45.52841,-73.517166,,38
4119,529,St-Charles / Montarville,45.533682,-73.515261,,38
4120,530,Collège Édouard-Montpetit (de Gentilly / de Normandie),45.537226,-73.495067,,38
4121,531,St-Charles / Grant,45.539824,-73.508752,,38
4122,532,Marché Atwater,45.480208,-73.577599,,27
4123,533,Atwater / Greene,45.480495,-73.577827,,27
4124,537,Villeneuve / St-Laurent,45.521342,-73.589419,,19
4125,538,Dollard / Van Horne,45.519153,-73.616469,,0
4126,540,Stuart / St-Viateur,45.516079,-73.607798,,0
4127,541,Parc Outremont (Bloomfield / Elmwood),45.518309,-73.603286,,46
4128,542,Parc Joyce (Rockland / Lajoie),45.515617,-73.614991,,0
4129,543,Davaar / de la Côte-Ste-Catherine,45.514379,-73.610871,,0
4130,544,Bloomfield / Bernard,45.520688,-73.608428,,46
4131,546,Bloomfield / Van Horne,45.522586,-73.612658,,0
4132,547,Métro Édouard-Montpetit (du Mont-Royal / Vincent-d'Indy),45.510086,-73.611429,,0
4133,548,Waverly / St-Zotique,45.530505,-73.614708,,17
4134,549,du Mont-Royal / Augustin-Frigon,45.543763,-73.56772,,43
4135,550,Drolet / Beaubien,45.533348,-73.605834,,17
4136,551,Métro Beaubien (de Chateaubriand / Beaubien),45.53536,-73.603635,,17
4137,552,de Bellechasse / de St-Vallier,45.53341,-73.601124,,46
4138,553,Boyer / Beaubien,45.537041,-73.602026,,46
4139,554,Chambord / Beaubien,45.539932,-73.599343,,42
4140,555,Centre ÉPIC (St-Zotique / 40e avenue),45.574147,-73.574621,,7
4141,556,Chabot / Beaubien,45.544376,-73.595645,,42
4142,557,Louis-Hébert / de Bellechasse,45.546661,-73.588684,,10
4143,558,Molson / Beaubien,45.549686,-73.591155,,10
4144,559,Beaubien / 8e avenue,45.553457,-73.587842,,10
4145,560,16e avenue / Beaubien,45.558281,-73.583159,,34
4146,561,29e avenue / St-Zotique,45.567766,-73.579688,,34
4147,562,de la Roche /  de Bellechasse,45.537159,-73.597476,,46
4148,563,Chabot / de Bellechasse,45.54257,-73.592144,,10
4149,564,Louis-Hébert / Beaubien,45.548186,-73.59201,,10
4150,565,Alexandra / Jean-Talon,45.532331,-73.620187,,17
4151,566,Marché Jean-Talon (Henri-Julien / Jean-Talon),45.536785,-73.614888,,17
4152,567,Bélanger / St-Denis,45.53696,-73.61199,,17
4153,568,de la Roche / Bélanger,45.54167,-73.607604,,42
4154,569,Boyer / Bélanger,45.54006,-73.60897,,17
4155,570,de Lanaudière / Bélanger,45.543651,-73.60565,,42
4156,571,Cartier / Bélanger,45.546797,-73.602664,,42
4157,572,des Érables / Bélanger,45.549121,-73.600874,,42
4158,573,Parc Père-Marquette (Chambord / Rosemont),45.537088,-73.593219,,10
4159,574,Boyer / Jean-Talon,45.541586,-73.612481,,17
4160,575,Louis-Hémon / Rosemont,45.544599,-73.588223,,10
4161,576,1ère avenue / Rosemont,45.5478,-73.584867,,10
4162,577,5e avenue / Rosemont,45.5499,-73.583084,,10
4163,578,Marquette / des Carrières,45.538799,-73.5887,,10
4164,579,Dandurand / de Lorimier,45.540881,-73.584157,,10
4165,580,Cartier / Dandurand,45.539236,-73.585946,,10
4166,581,de Gaspé / Marmier,45.529686,-73.601728,,46
4167,582,Fabre / St-Zotique,45.543452,-73.60101,,42
4168,583,de Bordeaux / St-Zotique,45.546539,-73.598665,,42
4169,584,Marmier / St-Denis,45.530871,-73.598345,,46
4170,585,Louis-Hébert / St-Zotique,45.55001,-73.59576,,42
4171,586,Fabre / Beaubien,45.54206,-73.597873,,42
4172,588,Parc du Pélican (2e avenue / St-Joseph),45.544513,-73.571564,,43
4173,589,St-Dominique / St-Zotique,45.532265,-73.611063,,17
4174,590,de Gaspé / Dante,45.534298,-73.612172,,17
4175,591,Mozart / St-Laurent,45.53318,-73.61544,,17
4176,592,Boyer / St-Zotique,45.53848,-73.60556,,17
4177,593,de St-Vallier / St-Zotique,45.536261,-73.607546,,17
4178,594,Drolet / St-Zotique,45.534882,-73.609412,,17
4179,595,28e avenue / Rosemont,45.564353,-73.571244,,34
4180,596,Casgrain / Mozart,45.534727,-73.614793,,17
4181,597,12e avenue / St-Zotique,45.556867,-73.589307,,16
4182,598,1ère  avenue / St-Zotique,45.551937,-73.593928,,16
4183,600,Jardin Botanique (Pie-IX / Sherbrooke),45.554947,-73.555295,,43
4184,601,18e avenue / Rosemont,45.557896,-73.576529,,34
4185,602,Hôpital Maisonneuve-Rosemont (Rosemont / Chatelain),45.575707,-73.561562,,7
4186,604,35e avenue / Beaubien,45.570081,-73.573047,,34
4187,606,de Chambly / Rachel,45.549911,-73.558263,,43
4188,607,10e avenue / Masson,45.550306,-73.573353,,34
4189,608,d'Orléans / Masson,45.557192,-73.569847,,34
4190,610,1ère avenue / Masson,45.5452,-73.576451,,10
4191,611,15e avenue / Masson,45.553898,-73.571387,,34
4192,613,Parc J.-Arthur-Champagne (de Chambly / du Mont-Royal),45.551584,-73.561916,,43
4193,614,Omer-Lavallée / du Midway,45.545776,-73.562175,,43
4194,616,Cartier / Rosemont,45.541247,-73.591044,,10
4195,619,St-Urbain / Beaubien,45.52951,-73.61068,,17
4196,620,Ernest-Gendreau / du Mont-Royal,45.549714,-73.563848,,43
4197,622,Place Émilie-Gamelin (St-Hubert / de Maisonneuve),45.515901,-73.559948,,28
4198,623,de Maisonneuve / Mansfield (nord),45.502311000000006,-73.5733635,,45
4199,624,St-Jacques / McGill,45.501441,-73.560144,,14
4200,625,St-Urbain / René-Lévesque,45.507838,-73.563136,,14
4201,626,de Maisonneuve / Mansfield (sud),45.502145,-73.57342700000001,,45
4202,627,Durocher / Bernard,45.522225,-73.606687,,46
4203,628,La Ronde,45.521565,-73.535332,,23
4204,629,Aylmer / Sherbrooke,45.506587,-73.573299,,45
4205,630,Querbes / Laurier,45.51754,-73.597832,,46
4206,631,26e avenue / Beaubien,45.564944,-73.577639,,34
4207,633,Jogues / Allard,45.45002,-73.600306,,24
4208,634,Mackay / Ste-Catherine,45.495709,-73.576952,,8
4209,635,19e avenue / St-Zotique,45.561594,-73.585643,,34
4210,636,de Maisonneuve / Greene,45.486971,-73.589293,,27
4211,637,Hillside / Ste-Catherine,45.482826,-73.590843,,27
4212,638,Victoria / de Maisonneuve,45.477429,-73.600169,,36
4213,639,Victoria Hall,45.481291,-73.60033,,36
4214,641,2e avenue / Jean-Rivard,45.562509,-73.61656,,16
4215,642,Henri-Julien / de Castelnau,45.537891,-73.618215,,17
4216,644,Chambord / Jean-Talon,45.544846,-73.610536,,42
4217,645,Louis-Hébert / Bélanger,45.551585,-73.599165,,42
4218,646,Gary-Carter / St-Laurent,45.5359,-73.622443,,17
4219,647,St-Dominique / Gounod,45.538738,-73.628022,,29
4220,648,Guizot / St-Laurent,45.539663,-73.634475,,29
4221,650,Drolet / Gounod,45.540951,-73.626375,,29
4222,651,de Gaspé / Jarry,45.54078,-73.630401,,29
4223,652,Guizot / St-Denis,45.543424,-73.632462,,29
4224,653,de Gaspé / de Liège,45.542485,-73.636342,,29
4225,654,du Rosaire / St-Hubert,45.544819,-73.62151,,29
4226,656,de Chateaubriand / Jarry,45.545955,-73.626992,,29
4227,657,de la Roche / Everett,45.544867,-73.614841,,42
4228,658,Marquette / Villeray,45.550684,-73.615293,,42
4229,659,St-Dominique / Jean-Talon,45.535248,-73.617564,,17
4230,660,Louis-Hémon / Villeray,45.554961,-73.610737,,42
4231,661,Métro St-Michel (Shaughnessy / St-Michel),45.559199,-73.599658,,16
4232,663,d'Outremont / Ogilvy,45.52687,-73.626723,,0
4233,664,de Normanville / Villeray,45.54717,-73.618041,,42
4234,665,Lajeunesse / Villeray,45.542119,-73.622547,,29
4235,666,Villeray / St-Michel,45.561059,-73.603967,,16
4236,668,Marquette / Jean-Talon,45.547408,-73.607669,,42
4237,669,de Bordeaux / Jean-Talon,45.549755,-73.605566,,42
4238,671,Ball / Querbes,45.531177,-73.632136,,29
4239,674,Drolet / Jarry,45.541955,-73.629942,,29
4240,675,Clark / de Liège,45.539984,-73.638135,,29
4241,676,Boyer / Rosemont,45.534136,-73.595478,,46
4242,677,Bernard / St-Urbain,45.526267,-73.603191,,46
4243,678,CIUSSS (du Trianon / Pierre-de-Coubertin),45.587531,-73.531907,,35
4244,680,Hôpital Santa Cabrini (St-Zotique / Jeanne-Jugan),45.579325,-73.570504,,7
4245,681,St-Denis / René-Lévesque,45.512871,-73.558466,,28
4246,682,du Président-Kennedy / Jeanne-Mance,45.508205,-73.568814,,45
4247,684,Jeanne-Mance / René-Lévesque,45.506371,-73.564201,,14
4248,686,Desjardins / Ontario,45.551192,-73.540873,,33
4249,687,Metcalfe / du Square-Dorchester,45.500208,-73.571138,,45
4250,688,Métro Viau (Pierre-de-Coubertin / Viau),45.561783,-73.546611,,11
4251,689,de Mentana / Gilford,45.528724,-73.583859,,19
4252,690,St-Maurice / Robert-Bourassa,45.498578,-73.560242,,14
4253,691,Métro Honoré-Beaugrand (Sherbrooke / Honoré-Beaugrand),45.596797,-73.535179,,35
4254,692,Paré / Mountain Sights,45.4981,-73.652942,,22
4255,693,Métro Radisson (Sherbrooke / des Groseilliers),45.589175,-73.539656,,35
4256,694,Graham / Brookfield,45.520222,-73.629856,,0
4257,696,Hutchison / Beaubien,45.526058,-73.612969,,0
4258,699,St-Jean-Baptiste / René-Lévesque,45.641557,-73.500375,,5
4259,701,du Tricentenaire / Prince-Albert,45.649546,-73.491916,,5
4260,702,de Maisonneuve / Aylmer (est),45.505386,-73.570432,,45
4261,703,du Souvenir / Chomedey,45.551886,-73.74444,,18
4262,704,Métro Montmorency,45.558109,-73.719598,,39
4263,705,Parc St-Claude (7e avenue / 8e rue),45.562668,-73.692362,,39
4264,706,Métro Cartier,45.56003,-73.681336,,39
4265,749,Atateken / du Square Amherst,45.5206338,-73.563906,,28
4266,750,Métro Sherbrooke (de Rigaud / St-Denis),45.5179989,-73.5681841,,28
4267,751,Bourget / St-Jacques,45.4808458,-73.5838616,,27
4268,752,Métro Bonaventure (de la Gauchetière / de la Cathédrale),45.4983122,-73.567256,,41
4269,753,Mansfield / Ste-Catherine,45.5013987,-73.5717863,,45
4270,756,Notre-Dame / Jean-d'Estrées,45.4942598,-73.5638181,,41
4271,757,de Gaspé / Beaubien,45.5319579,-73.607001,,17
4272,758,des Érables / du Mont-Royal,45.5358535,-73.5720545,,32
4273,760,St-Dominique / de Bellechasse,45.5295036,-73.6048646,,46
4274,761,St-Dominique / du Mont-Royal,45.5205595,-73.5858203,,19
4275,762,St-Dominique / Napoléon,45.5166644,-73.5772204,,26
4276,763,Métro Jean-Talon (Berri / Jean-Talon),45.5390004,-73.614251,,17
4277,764,St-Dominique / Laurier,45.5236149,-73.5924574,,19
4278,765,Faillon / St-Denis,45.5398641,-73.6203128,,17
4279,767,de Gaspé / Villeray,45.5388872,-73.623907,,29
4280,769,Grand Trunk / d'Hibernia,45.47968,-73.56385,,31
4281,770,Rivier / Davidson,45.5461147,-73.5570931,,43
4282,771,Métro Parc  (Hutchison / Ogilvy),45.5303513,-73.6243924,,0
4283,772,de la Salle / Hochelaga,45.5541523,-73.5474935,,33
4284,774,Parc St-Henri (Laporte / Guay),45.4801338,-73.5859081,,27
4285,775,St-Hubert / St-Joseph,45.5280879,-73.5858625,,19
4286,776,de la Côte St-Antoine / Argyle,45.486241,-73.5957277,,27
4287,778,Métro Jolicoeur (de Sève / Drake),45.4560855,-73.5819371,,3
4288,779,de Bleury / de Maisonneuve,45.5070965,-73.5684416,,45
4289,780,LaSalle / 80e avenue,45.4157687,-73.6379242,,6
4290,781,Kirkfield / de Chambois,45.5129332,-73.6338902,,22
4291,782,Garnier / Everett,45.5476247,-73.6120248,,42
4292,783,8e avenue / Jarry,45.5616903,-73.610512,,16
4293,784,de la Côte St-Paul / St-Ambroise,45.4676657,-73.5939178,,27
4294,785,des Jockeys / Décarie,45.4940443,-73.6544949,,22
4295,786,LaSalle / 37e avenue,45.4163102,-73.6129159,,47
4296,788,Bennett / Pierre-de-Coubertin,45.5581597,-73.5484001,,11
4297,790,Métro de Castelnau (de Castelnau / St-Laurent),45.5357088,-73.6196235,,17
4298,834,Graham / Wicksteed,45.5169365,-73.640483,,22
4299,835,Melville / de Maisonneuve,45.4818402,-73.595379,,27
4300,836,de la Pépinière / Pierre-de-Coubertin,45.5762592,-73.5383123,,11
4301,837,de Maisonneuve / Aylmer (ouest),45.505063,-73.5706812,,45
4302,838,Drolet / Marie-Anne,45.5224026,-73.5811767,,26
4303,840,des Bassins / Richmond,45.487531,-73.56507,,31
4304,841,de Laprairie / Centre,45.4813667,-73.5643189,,31
4305,842,Graham / Kindersley,45.51405,-73.6472556,,22
4306,843,Glengarry / Graham,45.50919,-73.6603206,,21
4307,845,Garnier / St-Grégoire,45.5358344,-73.5870212,,10
4308,846,Chabot / Villeray,45.5522894,-73.6130065,,42
4309,851,18e avenue / St-Joseph Lachine,45.4329767,-73.6808154,,48
4310,852,Eleanor / Ottawa,45.4924627,-73.5607839,,41
4311,855,Clark / Ontario,45.5106246,-73.5669033,,28
4312,856,Smith / Peel,-1.0,-1.0,,1
4313,858,Henri-Julien / de Bellechasse,45.5295036,-73.6048646,,46
4314,859,Campus MIL (Outremont / Thérèse-Lavoie Roux),45.5231722,-73.6180971,,0
4315,860,Parc Jean-Drapeau (Chemin Macdonald),45.5128006,-73.5311159,,23
4316,862,St-Charles / St-Sylvestre,45.5363438,-73.5127777,,38
4317,864,Métro Villa-Maria (de Monkland / Décarie),45.4789684,-73.6195993,,36
4318,865,Jeanne-Mance / Laurier,45.5201249,-73.5952138,,19
4319,866,des Ormeaux / Notre-Dame,45.5992655,-73.5122607,,13
4320,868,10e avenue / Holt,45.5519116,-73.5792112,,34
4321,869,Christophe-Colomb / St-Joseph,45.5303649,-73.5843927,,32
4322,873,Clark / St-Zotique,45.531611,-73.6133498,,17
4323,874,St-Gérard / Villeray,45.5426454,-73.6224445,,29
4324,876,Plessis / Logan,45.5217675,-73.5571025,,28
4325,880,des Soeurs-Grises / Marguerite-d'Youville,45.4987648,-73.5544766,,14
4326,881,Jeanne-Mance / Bernard,45.5244504,-73.6051744,,46
4327,884,de Castelnau / Lajeunesse,45.5403962,-73.6168179,,17
4328,886,Fullum / Holt,45.5439195,-73.5842489,,10
4329,887,3e avenue / Holt,45.5480035,-73.5813899,,10
4330,888,Mozart / Waverly,45.5315651,-73.6169464,,17
4331,890,Boucher / St-Denis,45.5278492,-73.5918613,,19
4332,891,5e avenue / Masson,45.5475583,-73.5754719,,10
4333,892,des Érables / Dandurand,45.5413694,-73.583974,,10
4334,893,René-Lévesque / 9e avenue,45.6407393,-73.5008258,,5
4335,895,Bloomfield / Jean-Talon,45.5274603,-73.6241752,,0
4336,897,Gilford / Parthenais,45.5378393,-73.5748386,,32
4337,898,Louis-Hémon / Jean-Talon,45.5517743,-73.6034784,,42
4338,899,de Grosbois / Ducheneau,45.6112307,-73.5312416,,13
4339,901,Notre-Dame-de-Grâce / Westmount,45.4804701,-73.6112161,,36
4340,903,Sherbrooke / Vignal,45.4898298,-73.5896777,,8
4341,904,Marmier,45.5310066,-73.5987988,,46
4342,906,Parc Ludger-Duvernay (St-André / St-Hubert),45.5314746,-73.5924205,,19
4343,907,Métro Pie-IX (Pierre-de-Coubertin / De La Salle),45.5552411,-73.5508221,,33
4344,908,Lajeunesse / de Liège,45.5455805,-73.6349,,29
4345,909,de Chateaubriand / Leman,45.5472345,-73.6310256,,29
4346,910,Fullum / Marie-Anne,45.5365054,-73.5680392,,32
4347,911,Rose-de-Lima / Workman,45.4802642,-73.5809936,,27
4348,912,Grey / Sherbrooke,45.4763443,-73.6062594,,36
4349,913,Parc Benny (Benny / de Monkland),45.4669357,-73.6315311,,12
4350,914,Earnscliffe / Queen-Mary,45.4818451,-73.6303738,,22
4351,915,McLynn / Plamondon,45.4891131,-73.6470129,,22
4352,916,St-Cyril / Wiseman,45.5208548,-73.6157396,,0
4353,917,Boyer / Everett,45.5432845,-73.6162861,,17
4354,918,Crescent / René-Lévesque,45.4959617,-73.5732535,,41
4355,919,des Récollets / McGill,45.5008765,-73.5590056,,14
4356,921,Fullum / de Rouen,45.5321322,-73.5587601,,2
4357,922,Aréna Rodrigue-Gilbert (du Tricentenaire / de Montigny),45.6514058,-73.5004127,,5
4358,923,Fullum / Ontario,45.5303174,-73.5548669,,2
4359,924,Place du Village-de-la-Pointe-aux-Trembles (St-Jean-Baptiste / Notre-Dame),45.6400029,-73.490113,,5
4360,925,la Fontaine / Alexandre-de-Sève,45.5233037,-73.5579997,,2
4361,926,Cégep Marie-Victorin,45.6174998,-73.6060113,,25
4362,927,Hôpital Sacré-Coeur (Forbes),45.5319436,-73.7136054,,4
4363,928,Place Rodolphe-Rousseau (Gohier / Édouard-Laurin),45.5129939,-73.6824985,,21
4364,929,Molson / William-Tremblay,45.5415485,-73.5650124,,43
4365,930,Messier / St-Joseph,45.5394606,-73.5760564,,32
4366,931,Ateliers municipaux de St-Laurent (Cavendish / Poirier),45.5061758,-73.7111861,,37
4367,932,Centre des loisirs (Tassé / Grenet),45.5147343,-73.691449,,37
4368,934,McKenna / Édouard-Montpetit,45.5011651,-73.6205475,,49
4369,935,St-Catherine / St-Laurent,45.5099315,-73.5638067,,28
4370,936,Du Quesne / Pierre-de-Coubertin,45.5750536,-73.5389322,,11
4371,937,Ste-Claire / Pierre-Tétreault,45.6019133,-73.5244185,,13
4372,938,Richmond / des Bassins,45.4875216,-73.565003,,31
4373,940,St-Joseph /21e avenue Lachine,45.4335565,-73.6840434,,48
4374,941,André-Laurendeau / Rachel,45.5428981,-73.561846,,43
4375,942,des Érables / Laurier,45.5384608,-73.5776791,,32
4376,943,Clark / St-Viateur,45.5251603,-73.5992467,,46
4377,944,Robin / 15e rue,45.5594955,-73.6989176,,39
4378,945,Legrand / Cartier,45.552298,-73.7073827,,39
4379,946,Parc nature de l'Île-de-la-Visitation (Gouin / de Bruchési),45.5783318,-73.655954,,44
4380,947,De la Commune / King,45.4975038,-73.5528445,,14
4381,948,Parc Henri-Julien (Legendre / Henri-Julien),45.5460356,-73.6465985,,15
4382,949,Mackay / Sainte-Catherine,45.4957609,-73.5768262,,8
4383,950,Place d'Youville / McGill,45.4999647,-73.5561544,,14
4384,951,Sainte-Catherine / Union,45.5036663,-73.5695761,,45
4385,952,Place du Canada ( Peel / de la Gauchetière),45.4986055,-73.5692275,,41
4386,953,Guizot / Clark,45.5396786,-73.6345875,,29
4387,954,Ste-Catherine / Union,45.5036663,-73.5695761,,45
4388,955,St-Christophe / René-Lévesque,45.5149464,-73.5562329,,28
4389,956,Parc de Dieppe,45.5018635,-73.543961,,14
4390,957,De Lanaudière / du Mont-Royal,45.5302211,-73.5769965,,32
4391,958,Panet / Ste-Catherine,45.5199567,-73.5548166,,28
4392,959,Ann / Ottawa,45.4949697,-73.558042,,14
4393,960,Sainte-Catherine / Parthenais,45.5262351,-73.54895,,2
4394,961,Terminus Newman (Airlie / Lafleur),45.4250597,-73.6495992,,6
4395,962,2e avenue / Centrale,45.4328944,-73.5968529,,47
4396,963,Travaux publics LaSalle (Cordner / Léger),45.4452719,-73.6244836,,12
4397,964,Lapierre / Serge,45.4385441,-73.6202163,,47
4398,965,Brittany / Ainsley,45.5258899,-73.6500344,,15
4399,966,Gloria / Dollard,45.429711,-73.6338834,,6
4400,967,Métro Lionel-Groulx (Walker / Saint-Jacques),45.4832209,-73.5807636,,27
4401,968,Palm / St-Rémi,45.470366,-73.589816,,27
4402,969,Jeanne Le Moyne / Jacques-Le Ber,45.4718801,-73.5379797,,40
4403,970,d'Orléans / du Mont-Royal,45.554133,-73.560226,,43
4404,971,Parc Loyola (Somerled / Doherty),45.460023,-73.644442,,12
4405,972,Parc Van Horne (de la Peltrie / de Westbury),45.4904723,-73.6385324,,22
4406,973,de la Rotonde / Jacques-Le Ber,45.4718801,-73.5379797,,40
4407,974,Parc de la Confédération (Fielding / West Hill),45.471882,-73.6400217,,12
4408,975,Parc MacDonald (Earnscliffe / Dupuis),45.484919,-73.6374146,,22
4409,976,REV (Souligny / Desmarteau),45.6046208,-73.5159963,,13
4410,977,CHU Sainte-Justine (Côte Sainte-Catherine / Hudson),45.5039817,-73.6228395,,49
4411,978,CHU Sainte-Justine (de la Côte Sainte-Catherine / Hudson),45.5039817,-73.6228395,,49
4412,979,des Ormeaux / de Grosbois,45.6059017,-73.5343695,,35
4413,980,Champdoré / de Lorimier,45.5668693,-73.6410168,,44
4414,981,Parc Labelle (Lasalle/ Henri Duhamel),45.472561,-73.5699892,,31
4415,982,Monk / de Biencourt,45.4584299,-73.5960603,,24
4416,983,Egan / Laurendeau,45.4528579,-73.5892488,,24
4417,984,Dorion / Rachel,45.531634,-73.5682458,,32
4418,985,Parc Villeray (Christophe-Colomb / Jarry),45.5480925,-73.624261,,29
4419,986,de Léry / Sherbrooke,45.5409997,-73.5582626,,43
4420,987,St-Charles / Thomas-Keefer,45.477605,-73.573775,,31
4421,988,Monsabré / Boileau,45.5717982,-73.5415497,,11
4422,989,Parc Georges St-Pierre (Oxford / Upper Lachine),45.4689119,-73.6095089,,36
4423,990,Aylmer/ Sainte-Catherine,45.5043468,-73.5689485,,45
4424,991,St-Henri / Gauvin,45.5002783,-73.5598773,,14
4425,992,St-Henri / Notre-Dame,45.5002783,-73.5598773,,14
4426,993,de Grosbois / Duchesneau,45.6112307,-73.5312416,,13
4427,994,Parc Labelle (LaSalle / Henri-Duhamel),45.472561,-73.5699892,,31
4428,995,8e avenue / Everett,45.5648113,-73.5958041,,16
4429,996,Lacombe / Victoria,45.490628,-73.628878,,49
4430,997,Parc MacDonald (Clanranald / Isabella),45.4826927,-73.6348128,,22
4431,998,St-Ambroise / Louis-Cyr,45.4751933,-73.5809433,,27
4432,999,Parc de Beauséjour (Gouin / Henri-d'Arles),45.526765,-73.730423,,4
4433,1000,Parc Champdoré (Champdoré / de Lille),45.5691762,-73.6362934,,44
4434,1002,Vendôme / Sherbrooke,45.475963,-73.6072344,,36
4435,1003,Parc Tino-Rossi (18e avenue / Everett),45.5648113,-73.5958041,,16
4436,1004,Stinson / Montpellier,45.5040143,-73.7044269,,37
4437,1005,Villeneuve / St-Denis,45.5251147,-73.586006,,19
4438,1006,Place du Canada (Peel / de la Gauchetière),45.4984678,-73.5684335,,41
4439,1007,Aylmer / Ste-Catherine,45.5043468,-73.5689485,,45
4440,1008,Ste-Catherine / Parthenais,45.5262351,-73.54895,,2
4441,1009,de Lanaudière / du Mont-Royal,45.5302211,-73.5769965,,32
4442,1010,Métro Pie-IX (Pierre-de-Coubertin / de la Salle),45.5552411,-73.5508221,,33
4443,1011,St-Joseph / 21e avenue Lachine,45.4335565,-73.6840434,,48
4444,1012,Parc Georges St-Pierre (Upper Lachine / Oxford),45.4690265,-73.609537,,36
4445,1013,Everett / 8e avenue,45.5575132,-73.6017948,,16
4446,1014,Robert Bourassa / Sainte-Catherine,45.5032151,-73.5699785,,45
4447,1015,Robert-Bourassa / Ste-Catherine,45.5032151,-73.5699785,,45
4448,1016,Parc Howard (de l'Épée / de Liège),45.5616903,-73.610512,,16
4449,1017,Sabrevois / des Récollets,45.5832879,-73.6327636,,9
4450,1018,Boyer / Rachel,45.5252551,-73.5752406,,32
4451,1019,Bishop/ René-Lévesque,45.4953231,-73.5738867,,41
4452,1020,Parc Maisonneuve (Viau / Sherbrooke),45.5649368,-73.5555911,,11
4453,1021,Duchesneau/Marseille,45.6096263,-73.522739,,13
4454,1022,Duchesneau / Marseille,45.6096263,-73.522739,,13
4455,1023,Mansfield / Cathcart,45.5007599,-73.5704827,,45
4456,1024,6e avenue / Bélanger,45.5545638,-73.5961568,,16
4457,1025,Marquette / Gilford,45.5338507,-73.5789116,,32
4458,1026,Duchesneau / de Marseille,45.6096263,-73.522739,,13
4459,1027,St-Antoine / de la Montagne,45.4953717,-73.5685891,,41
4460,1028,Berri/ Duluth,45.5216853,-73.5749415,,26
4461,1029,Métro Lionel-Groulx (Saint-Jacques/ Atwater),45.4836285,-73.5797026,,27
4462,1030,Bishop / René-Lévesque,45.4953231,-73.5738867,,41
4463,1031,Berri / Duluth,45.5216853,-73.5749415,,26
4464,1032,Parc des Hirondelles (Fleury / André-Jobin),45.5760003,-73.6467648,,44
4465,1033,Parc Baldwin (Fullum / Sherbrooke),45.5340705,-73.5626507,,2
4466,1034,Parc Père-Marquette (de Lanaudière / de Bellechasse),45.539324,-73.5958784,,10
4467,1036,Dixie / 53e avenue,45.4433506,-73.7169045,,30
4468,1037,Alexis-Nihon / St-Louis,45.5003388,-73.6826205,,21
4469,1038,Parc Marlborough (Beauzèle / Robichaud),45.5223415,-73.7216789,,4
4470,1039,Fleury / de St-Firmin,45.5705064,-73.6517805,,44
4471,1040,Parc Reine-Élizabeth (Penniston / Crawford),45.4391447,-73.5917366,,47
4472,1041,Parc du Pélican (1ère avenue / Masson),45.5451997,-73.5764507,,10
4473,1042,Hutchison / Beaumont,45.5284463,-73.6187021,,0
4474,1043,Dandurand / des Érables,45.5408227,-73.5842103,,10
4475,1044,Gilford / des Érables,45.5375266,-73.5751244,,32
4476,1045,Parc Langelier - Marie-Victorin,45.6144298,-73.6122333,,25
4477,1046,Robin / de la Visitation,45.5209227,-73.5591772,,28
4478,1047,Parc Hébert ( Provencher / Buies),45.5716274,-73.5920477,,16
4479,1048,41e avenue / Victoria,45.440347,-73.7023133,,30
4480,1049,Métro Snowdon (Dornal / Westbury),45.4856314,-73.6287649,,49
4481,1050,Parc Ivan-Franko (33e avenue / Victoria),45.43746,-73.6935318,,48
4482,1051,19e avenue / Saint-Antoine,45.4397787,-73.6813706,,48
4483,1052,Parc Maurice Bélanger (Forest / de l'Hôtel-de-Ville),45.5883561,-73.6317122,,9
4484,1053,Pratt / Bates,45.5169478,-73.6263156,,0
4485,1054,McCulloch / de la Côte Ste-Catherine,45.5157751,-73.6006093,,46
4486,1055,Parc Sauvé (Balzac / de Bayonne),45.5990861,-73.6369479,,9
4487,1056,Ste-Catherine / Sanguinet,45.5128938,-73.5612479,,28
4488,1057,de Côme / Jean-Talon,45.588303,-73.5778372,,7
4489,1058,Wellington / 2e avenue,45.4575911,-73.5675594,,3
4490,1059,Wellington / Hickson,45.4650577,-73.5667753,,3
4491,1060,Legrand / Laurier,45.5502232,-73.7054669,,39
4492,1061,Parc Hébert (Provencher / Buies),45.5716274,-73.5920477,,16
4493,1062,Beurling / Godin,45.4479158,-73.5838187,,3
4494,1063,Letourneaux / Ste-Catherine,45.5507836,-73.5341,,33
4495,1064,8e avenue / Saint-Joseph Lachine,45.4316481,-73.6711246,,6
4496,1065,Laurier / Parisi,45.549783,-73.7063098,,39
4497,1066,Dorion / Gauthier,45.5306736,-73.5662503,,2
4498,1067,Chabot / Laurier,45.5368558,-73.5793731,,32
4499,1068,Métro Fabre (Marquette / Jean-Talon),45.5474078,-73.6076689,,42
4500,1069,Métro Plamondon (de Kent / Victoria),45.494564,-73.638702,,22
4501,1070,Métro Place-des-Arts (du Président-Kennedy / Jeanne-Mance),45.5082046,-73.5688144,,45
4502,1071,Letourneux / Ste-Catherine,45.5507836,-73.5341,,33
4503,1072,Métro Jarry (Lajeunesse / Jarry),45.5435597,-73.627772,,29
4504,1073,Gilford / St-Denis,45.5251147,-73.586006,,19
4505,1074,Sicard / Adam,45.5548617,-73.5327172,,33
4506,1075,Parc Maurice Bélanger (Hebert / Forest),45.5880822,-73.6322231,,9
4507,1076,Durocher / Beaumont,45.5280002,-73.6192358,,0
4508,1077,Marie-Anne / Papineau,45.5317737,-73.5724462,,32
4509,1078,Parc du Pélican (Laurier/ 2e avenue),45.5449577,-73.5728859,,43
4510,1079,Saint-Viateur / Casgrain,45.5271166,-73.5977359,,46
4511,1080,Maguire / Saint-Dominique,45.5252675,-73.5952374,,46
4512,1081,Monk / Jacques-Hertel,45.4597531,-73.5964214,,24
4513,1082,Péloquin / Fleury,45.5570222,-73.6599016,,15
4514,1083,de l’hôtel de ville / Saint-Joseph,45.5242771,-73.5892904,,19
4515,1084,Des Érables / Villeray,45.5539483,-73.6115748,,42
4516,1085,Parc Henri-Durant (Léger / Henri-Durant),45.5684396,-73.6752021,,39
4517,1086,Parc Chopin (Dumouchel / Tessier),45.5707266,-73.737086,,18
4518,1087,27e avenue / Rosemont,45.5636787,-73.5716045,,34
4519,1088,de l'Hôtel-de-Ville / St-Joseph,45.5242771,-73.5892904,,19
4520,1089,St-Viateur / Casgrain,45.5271166,-73.5977359,,46
4521,1090,Métro Beaudry (Montcalm / de Maisonneuve),45.519132,-73.5578897,,28
4522,1091,Durocher / St-Viateur,45.5207958,-73.6032707,,46
4523,1092,de Normanville / Beaubien,45.5392943,-73.6004199,,42
4524,1093,Querbes / Ball,45.5311169,-73.6322325,,29
4525,1094,Sanguinet / Sainte-Catherine,45.5128612,-73.5615949,,28
4526,1095,Langelier / Marie-Victorin,45.6145192,-73.6122447,,25
4527,1096,Drummond / Sherbrooke,45.5003924,-73.578168,,45
4528,1098,Chomedey / Lincoln,45.4922268,-73.5847816,,8
4529,1099,Parc Dixie (54e avenue / Dixie),45.442397,-73.7176502,,30
4530,1100,Parc Outremont (Bloomfield / St-Viateur),45.5190491,-73.6049806,,46
4531,1101,de Rouen / Lespérance,45.5386271,-73.5528392,,2
4532,1102,Ropery / Grand Trunk,45.4786714,-73.565705,,31
4533,1103,Parc Wilfrid-Bastien (Lacordaire / des Galets),45.5864002,-73.5952181,,7
4534,1104,Parc Delorme (Malouin / Laferté),45.5904902,-73.5902694,,7
4535,1105,Parc St-Laurent (Salk / Thomas-Chapais),45.6062348,-73.6287838,,25
4536,1106,Parc Saint-Laurent (Dutrisac),45.5259138,-73.6891115,,20
4537,1107,Parc Beaulac (rue Élizabeth),45.5200557,-73.6779515,,21
4538,1108,CHSLD St-Michel (8e avenue / Jarry),45.5616903,-73.610512,,16
4539,1109,Mairie d'arrondissement Montréal-Nord (Hébert / de Charleroi),45.593985,-73.6376721,,9
4540,1110,Parc Luigi-Pirandello (de Bretagne / Jean-Rivard),45.5794057,-73.6025888,,16
4541,1111,Parc LaSalle (10e avenue / Victoria),45.4380555,-73.6727393,,48
4542,1112,Parc Stoney-Point (St-Joseph / 47e avenue),45.4365683,-73.7083697,,30
4543,1113,Parc riverain de Lachine (des Iroquois),45.4305431,-73.6690244,,6
4544,1114,Bibliothèque Jean-Corbeil (Goncourt / Place Montrichard),45.6027276,-73.5579303,,35
4545,1115,Aréna Chaumont (Chaumont / des Ormeaux),45.6109266,-73.5467345,,35
4546,1116,Parc Chamberland (Dorais / de l'Église),45.502989,-73.689113,,37
4547,1117,Parc Noel-Nord (Toupin / Keller),45.5175831,-73.7266141,,4
